{"type": "FeatureCollection", "city": "chicago", "center": [-87.683, 41.8589], "n_total": 11177, "features": [{"type": "Feature", "geometry": {"type": "Point", "coordinates": [-87.77411061, 41.87632969]}, "properties": {"name": "Jackson & Austin Terminal"}}, {"type": "Feature", "geometry": {"type": "Point", "coordinates": [-87.76826417, 41.8769922]}, "properties": {"name": "5700 W Jackson"}}, {"type": "Feature", "geometry": {"type": "Point", "coordinates": [-87.75893123, 41.87655982]}, "properties": {"name": "5351 W Jackson"}}, {"type": "Feature", "geometry": {"type": "Point", "coordinates": [-87.75462104, 41.87660248]}, "properties": {"name": "Jackson & Laramie"}}, {"type": "Feature", "geometry": {"type": "Point", "coordinates": [-87.75128834, 41.87665915]}, "properties": {"name": "5047 W Jackson"}}, {"type": "Feature", "geometry": {"type": "Point", "coordinates": [-87.74702316, 41.87669677]}, "properties": {"name": "4849 W Jackson"}}, {"type": "Feature", "geometry": {"type": "Point", "coordinates": [-87.74255479, 41.8768376]}, "properties": {"name": "Jackson & Kilpatrick"}}, {"type": "Feature", "geometry": {"type": "Point", "coordinates": [-87.73761999, 41.87689357]}, "properties": {"name": "Jackson & Kilbourn"}}, {"type": "Feature", "geometry": {"type": "Point", "coordinates": [-87.73265578, 41.87694085]}, "properties": {"name": "Jackson & Kildare"}}, {"type": "Feature", "geometry": {"type": "Point", "coordinates": [-87.72781365, 41.87701444]}, "properties": {"name": "Jackson & Karlov"}}, {"type": "Feature", "geometry": {"type": "Point", "coordinates": [-87.72296018, 41.8770764]}, "properties": {"name": "Jackson & Springfield"}}, {"type": "Feature", "geometry": {"type": "Point", "coordinates": [-87.71548297, 41.87714967]}, "properties": {"name": "Jackson & Central Park"}}, {"type": "Feature", "geometry": {"type": "Point", "coordinates": [-87.70828241, 41.87723901]}, "properties": {"name": "Jackson & Spaulding"}}, {"type": "Feature", "geometry": {"type": "Point", "coordinates": [-87.70332877, 41.87729585]}, "properties": {"name": "Jackson & Albany"}}, {"type": "Feature", "geometry": {"type": "Point", "coordinates": [-87.69596091, 41.87737867]}, "properties": {"name": "Jackson & California"}}, {"type": "Feature", "geometry": {"type": "Point", "coordinates": [-87.68603149, 41.87749727]}, "properties": {"name": "Jackson & Western"}}, {"type": "Feature", "geometry": {"type": "Point", "coordinates": [-87.6812767, 41.87755181]}, "properties": {"name": "Jackson & Leavitt"}}, {"type": "Feature", "geometry": {"type": "Point", "coordinates": [-87.67667812, 41.87742885]}, "properties": {"name": "Jackson & Damen"}}, {"type": "Feature", "geometry": {"type": "Point", "coordinates": [-87.67133976, 41.87406685]}, "properties": {"name": "Harrison & Wood"}}, {"type": "Feature", "geometry": {"type": "Point", "coordinates": [-87.67484661, 41.87744033]}, "properties": {"name": "Malcolm X College"}}, {"type": "Feature", "geometry": {"type": "Point", "coordinates": [-87.66899623, 41.87753226]}, "properties": {"name": "Jackson & Paulina"}}, {"type": "Feature", "geometry": {"type": "Point", "coordinates": [-87.66407376, 41.87759785]}, "properties": {"name": "Jackson & Laflin"}}, {"type": "Feature", "geometry": {"type": "Point", "coordinates": [-87.65678492, 41.87773716]}, "properties": {"name": "Jackson & Racine"}}, {"type": "Feature", "geometry": {"type": "Point", "coordinates": [-87.65170444, 41.87781483]}, "properties": {"name": "Jackson & Morgan"}}, {"type": "Feature", "geometry": {"type": "Point", "coordinates": [-87.64697233, 41.87789765]}, "properties": {"name": "Jackson & Halsted"}}, {"type": "Feature", "geometry": {"type": "Point", "coordinates": [-87.63978175, 41.87800485]}, "properties": {"name": "Jackson & Canal"}}, {"type": "Feature", "geometry": {"type": "Point", "coordinates": [-87.63287375, 41.87808885]}, "properties": {"name": "Jackson & Financial Place"}}, {"type": "Feature", "geometry": {"type": "Point", "coordinates": [-87.62790475, 41.87814885]}, "properties": {"name": "Jackson & State"}}, {"type": "Feature", "geometry": {"type": "Point", "coordinates": [-87.62440175, 41.87627885]}, "properties": {"name": "Michigan & Van Buren/Ida B. Wells"}}, {"type": "Feature", "geometry": {"type": "Point", "coordinates": [-87.62416575, 41.87669785]}, "properties": {"name": "Michigan & Van Buren"}}, {"type": "Feature", "geometry": {"type": "Point", "coordinates": [-87.62588975, 41.87958285]}, "properties": {"name": "Adams & Wabash"}}, {"type": "Feature", "geometry": {"type": "Point", "coordinates": [-87.63938621, 41.87683533]}, "properties": {"name": "Van Buren & Canal"}}, {"type": "Feature", "geometry": {"type": "Point", "coordinates": [-87.64705376, 41.87673385]}, "properties": {"name": "Van Buren & Halsted"}}, {"type": "Feature", "geometry": {"type": "Point", "coordinates": [-87.65441295, 41.87662473]}, "properties": {"name": "Van Buren & Aberdeen"}}, {"type": "Feature", "geometry": {"type": "Point", "coordinates": [-87.66410593, 41.8764545]}, "properties": {"name": "Van Buren & Laflin"}}, {"type": "Feature", "geometry": {"type": "Point", "coordinates": [-87.67188223, 41.87633688]}, "properties": {"name": "Van Buren & Ogden"}}, {"type": "Feature", "geometry": {"type": "Point", "coordinates": [-87.67607776, 41.87624785]}, "properties": {"name": "Van Buren & Damen"}}, {"type": "Feature", "geometry": {"type": "Point", "coordinates": [-87.67455277, 41.87414935]}, "properties": {"name": "Harrison & Ogden"}}, {"type": "Feature", "geometry": {"type": "Point", "coordinates": [-87.67635712, 41.87741727]}, "properties": {"name": "Damen & Jackson"}}, {"type": "Feature", "geometry": {"type": "Point", "coordinates": [-87.69403808, 41.87753288]}, "properties": {"name": "Jackson & Washtenaw"}}, {"type": "Feature", "geometry": {"type": "Point", "coordinates": [-87.70134023, 41.87745114]}, "properties": {"name": "Jackson & Sacramento"}}, {"type": "Feature", "geometry": {"type": "Point", "coordinates": [-87.70628389, 41.87740304]}, "properties": {"name": "Jackson & Kedzie"}}, {"type": "Feature", "geometry": {"type": "Point", "coordinates": [-87.71366145, 41.87731351]}, "properties": {"name": "Jackson & St. Louis"}}, {"type": "Feature", "geometry": {"type": "Point", "coordinates": [-87.7210538, 41.87721835]}, "properties": {"name": "Jackson & Hamlin"}}, {"type": "Feature", "geometry": {"type": "Point", "coordinates": [-87.72580051, 41.87714451]}, "properties": {"name": "Jackson & Pulaski"}}, {"type": "Feature", "geometry": {"type": "Point", "coordinates": [-87.73065451, 41.87708512]}, "properties": {"name": "Jackson & Keeler"}}, {"type": "Feature", "geometry": {"type": "Point", "coordinates": [-87.73556149, 41.87702535]}, "properties": {"name": "Jackson & Kostner"}}, {"type": "Feature", "geometry": {"type": "Point", "coordinates": [-87.74070166, 41.87697331]}, "properties": {"name": "Jackson & Kenton"}}, {"type": "Feature", "geometry": {"type": "Point", "coordinates": [-87.74542476, 41.87686678]}, "properties": {"name": "Jackson & Cicero"}}, {"type": "Feature", "geometry": {"type": "Point", "coordinates": [-87.74973704, 41.87677894]}, "properties": {"name": "Jackson & Lavergne"}}, {"type": "Feature", "geometry": {"type": "Point", "coordinates": [-87.75354107, 41.87673642]}, "properties": {"name": "Jackson & Leamington"}}, {"type": "Feature", "geometry": {"type": "Point", "coordinates": [-87.75783513, 41.87668465]}, "properties": {"name": "Jackson & Lockwood"}}, {"type": "Feature", "geometry": {"type": "Point", "coordinates": [-87.76155127, 41.87661996]}, "properties": {"name": "Jackson & Lotus"}}, {"type": "Feature", "geometry": {"type": "Point", "coordinates": [-87.76801871, 41.87717765]}, "properties": {"name": "5700 W Jackson"}}, {"type": "Feature", "geometry": {"type": "Point", "coordinates": [-87.76480578, 41.87269084]}, "properties": {"name": "Harrison & Central Terminal"}}, {"type": "Feature", "geometry": {"type": "Point", "coordinates": [-87.75937279, 41.87290785]}, "properties": {"name": "5400 W Harrison"}}, {"type": "Feature", "geometry": {"type": "Point", "coordinates": [-87.75449681, 41.87289038]}, "properties": {"name": "Harrison & Laramie"}}, {"type": "Feature", "geometry": {"type": "Point", "coordinates": [-87.7492141, 41.8730097]}, "properties": {"name": "Harrison & Lavergne"}}, {"type": "Feature", "geometry": {"type": "Point", "coordinates": [-87.74266678, 41.87310685]}, "properties": {"name": "Harrison & Kilpatrick"}}, {"type": "Feature", "geometry": {"type": "Point", "coordinates": [-87.73949378, 41.87321285]}, "properties": {"name": "Harrison & Kolmar"}}, {"type": "Feature", "geometry": {"type": "Point", "coordinates": [-87.73550165, 41.87377219]}, "properties": {"name": "Harrison & Kostner"}}, {"type": "Feature", "geometry": {"type": "Point", "coordinates": [-87.73495763, 41.8702706]}, "properties": {"name": "Fifth Avenue & Kostner"}}, {"type": "Feature", "geometry": {"type": "Point", "coordinates": [-87.73010778, 41.87160785]}, "properties": {"name": "Fifth Avenue & Keeler"}}, {"type": "Feature", "geometry": {"type": "Point", "coordinates": [-87.72557642, 41.87290333]}, "properties": {"name": "Fifth Avenue & Pulaski"}}, {"type": "Feature", "geometry": {"type": "Point", "coordinates": [-87.71957078, 41.87346485]}, "properties": {"name": "Harrison & Independence"}}, {"type": "Feature", "geometry": {"type": "Point", "coordinates": [-87.71333277, 41.87354885]}, "properties": {"name": "Harrison & St. Louis"}}, {"type": "Feature", "geometry": {"type": "Point", "coordinates": [-87.70846677, 41.87360985]}, "properties": {"name": "Harrison & Spaulding"}}, {"type": "Feature", "geometry": {"type": "Point", "coordinates": [-87.70105456, 41.8736976]}, "properties": {"name": "Harrison & Sacramento"}}, {"type": "Feature", "geometry": {"type": "Point", "coordinates": [-87.69378477, 41.87376285]}, "properties": {"name": "Harrison & Washtenaw"}}, {"type": "Feature", "geometry": {"type": "Point", "coordinates": [-87.68880277, 41.87381185]}, "properties": {"name": "Harrison & Campbell"}}, {"type": "Feature", "geometry": {"type": "Point", "coordinates": [-87.68391877, 41.87388985]}, "properties": {"name": "Harrison & Oakley"}}, {"type": "Feature", "geometry": {"type": "Point", "coordinates": [-87.67899576, 41.87395785]}, "properties": {"name": "Harrison & Hoyne"}}, {"type": "Feature", "geometry": {"type": "Point", "coordinates": [-87.65717276, 41.87419885]}, "properties": {"name": "Harrison & Racine"}}, {"type": "Feature", "geometry": {"type": "Point", "coordinates": [-87.64913776, 41.87434885]}, "properties": {"name": "900 W Harrison"}}, {"type": "Feature", "geometry": {"type": "Point", "coordinates": [-87.64775575, 41.87444885]}, "properties": {"name": "Harrison & Halsted"}}, {"type": "Feature", "geometry": {"type": "Point", "coordinates": [-87.65158876, 41.87447085]}, "properties": {"name": "Harrison & Morgan"}}, {"type": "Feature", "geometry": {"type": "Point", "coordinates": [-87.67873476, 41.87404485]}, "properties": {"name": "Harrison & Hoyne"}}, {"type": "Feature", "geometry": {"type": "Point", "coordinates": [-87.68359471, 41.87399537]}, "properties": {"name": "Harrison & Oakley"}}, {"type": "Feature", "geometry": {"type": "Point", "coordinates": [-87.69049877, 41.87392085]}, "properties": {"name": "Harrison & Maplewood"}}, {"type": "Feature", "geometry": {"type": "Point", "coordinates": [-87.69841077, 41.87381685]}, "properties": {"name": "Harrison & Francisco"}}, {"type": "Feature", "geometry": {"type": "Point", "coordinates": [-87.70329775, 41.87383048]}, "properties": {"name": "Harrison & Albany"}}, {"type": "Feature", "geometry": {"type": "Point", "coordinates": [-87.70608926, 41.87497523]}, "properties": {"name": "Congress & Kedzie"}}, {"type": "Feature", "geometry": {"type": "Point", "coordinates": [-87.71054309, 41.87460259]}, "properties": {"name": "Congress & Homan"}}, {"type": "Feature", "geometry": {"type": "Point", "coordinates": [-87.71791086, 41.87453781]}, "properties": {"name": "3700 W Congress"}}, {"type": "Feature", "geometry": {"type": "Point", "coordinates": [-87.72259378, 41.87450385]}, "properties": {"name": "Congress & Springfield"}}, {"type": "Feature", "geometry": {"type": "Point", "coordinates": [-87.73270879, 41.87435429]}, "properties": {"name": "Congress & Kildare"}}, {"type": "Feature", "geometry": {"type": "Point", "coordinates": [-87.73747524, 41.87335215]}, "properties": {"name": "Harrison & Kilbourn"}}, {"type": "Feature", "geometry": {"type": "Point", "coordinates": [-87.74083009, 41.87325648]}, "properties": {"name": "4630 W Harrison"}}, {"type": "Feature", "geometry": {"type": "Point", "coordinates": [-87.74899335, 41.87308181]}, "properties": {"name": "Harrison & Lavergne"}}, {"type": "Feature", "geometry": {"type": "Point", "coordinates": [-87.75465645, 41.87302624]}, "properties": {"name": "Harrison & Laramie"}}, {"type": "Feature", "geometry": {"type": "Point", "coordinates": [-87.75948602, 41.87296047]}, "properties": {"name": "5400 W Harrison"}}, {"type": "Feature", "geometry": {"type": "Point", "coordinates": [-87.76277863, 41.86555861]}, "properties": {"name": "5500W Roosevelt"}}, {"type": "Feature", "geometry": {"type": "Point", "coordinates": [-87.75705856, 41.86565722]}, "properties": {"name": "5300 W. Roosevelt"}}, {"type": "Feature", "geometry": {"type": "Point", "coordinates": [-87.75214404, 41.86574288]}, "properties": {"name": "Roosevelt & 51st Avenue"}}, {"type": "Feature", "geometry": {"type": "Point", "coordinates": [-87.74733325, 41.86579576]}, "properties": {"name": "Roosevelt & 49th Avenue"}}, {"type": "Feature", "geometry": {"type": "Point", "coordinates": [-87.73750567, 41.86593515]}, "properties": {"name": "Roosevelt & Kilbourn"}}, {"type": "Feature", "geometry": {"type": "Point", "coordinates": [-87.72772678, 41.86608285]}, "properties": {"name": "Roosevelt & Karlov"}}, {"type": "Feature", "geometry": {"type": "Point", "coordinates": [-87.72026823, 41.86615631]}, "properties": {"name": "Roosevelt & Independence"}}, {"type": "Feature", "geometry": {"type": "Point", "coordinates": [-87.71564039, 41.86621189]}, "properties": {"name": "Roosevelt & Central Park"}}, {"type": "Feature", "geometry": {"type": "Point", "coordinates": [-87.70325277, 41.86635347]}, "properties": {"name": "Roosevelt & Albany"}}, {"type": "Feature", "geometry": {"type": "Point", "coordinates": [-87.69843277, 41.86642685]}, "properties": {"name": "Roosevelt & Francisco"}}, {"type": "Feature", "geometry": {"type": "Point", "coordinates": [-87.69230777, 41.86649285]}, "properties": {"name": "Roosevelt & Talman"}}, {"type": "Feature", "geometry": {"type": "Point", "coordinates": [-87.67147397, 41.86665128]}, "properties": {"name": "Roosevelt & Wood"}}, {"type": "Feature", "geometry": {"type": "Point", "coordinates": [-87.66410565, 41.86677527]}, "properties": {"name": "Roosevelt & Laflin"}}, {"type": "Feature", "geometry": {"type": "Point", "coordinates": [-87.6568219, 41.86689478]}, "properties": {"name": "Roosevelt & Racine"}}, {"type": "Feature", "geometry": {"type": "Point", "coordinates": [-87.65122947, 41.86703739]}, "properties": {"name": "Roosevelt & Morgan"}}, {"type": "Feature", "geometry": {"type": "Point", "coordinates": [-87.64227639, 41.86712646]}, "properties": {"name": "Roosevelt & Jefferson"}}, {"type": "Feature", "geometry": {"type": "Point", "coordinates": [-87.63061186, 41.86724646]}, "properties": {"name": "Roosevelt & Clark"}}, {"type": "Feature", "geometry": {"type": "Point", "coordinates": [-87.63554935, 41.86742411]}, "properties": {"name": "327 W Roosevelt"}}, {"type": "Feature", "geometry": {"type": "Point", "coordinates": [-87.6494372, 41.86722706]}, "properties": {"name": "900 W Roosevelt"}}, {"type": "Feature", "geometry": {"type": "Point", "coordinates": [-87.65308541, 41.86717505]}, "properties": {"name": "Roosevelt & Blue Island"}}, {"type": "Feature", "geometry": {"type": "Point", "coordinates": [-87.65652081, 41.86711318]}, "properties": {"name": "Roosevelt & Racine"}}, {"type": "Feature", "geometry": {"type": "Point", "coordinates": [-87.66879849, 41.86703661]}, "properties": {"name": "Roosevelt & Paulina"}}, {"type": "Feature", "geometry": {"type": "Point", "coordinates": [-87.67354398, 41.86696721]}, "properties": {"name": "Roosevelt & Wolcott"}}, {"type": "Feature", "geometry": {"type": "Point", "coordinates": [-87.68586026, 41.8667238]}, "properties": {"name": "Roosevelt & Western"}}, {"type": "Feature", "geometry": {"type": "Point", "coordinates": [-87.69217277, 41.86660486]}, "properties": {"name": "Roosevelt & Talman"}}, {"type": "Feature", "geometry": {"type": "Point", "coordinates": [-87.69825689, 41.86657293]}, "properties": {"name": "Roosevelt & Francisco"}}, {"type": "Feature", "geometry": {"type": "Point", "coordinates": [-87.70315054, 41.86651976]}, "properties": {"name": "Roosevelt & Albany"}}, {"type": "Feature", "geometry": {"type": "Point", "coordinates": [-87.70793171, 41.86645756]}, "properties": {"name": "Roosevelt & Spaulding"}}, {"type": "Feature", "geometry": {"type": "Point", "coordinates": [-87.7128794, 41.86641244]}, "properties": {"name": "Roosevelt & St. Louis"}}, {"type": "Feature", "geometry": {"type": "Point", "coordinates": [-87.71939103, 41.86633338]}, "properties": {"name": "Roosevelt & Independence"}}, {"type": "Feature", "geometry": {"type": "Point", "coordinates": [-87.72504652, 41.86626185]}, "properties": {"name": "Roosevelt & Pulaski"}}, {"type": "Feature", "geometry": {"type": "Point", "coordinates": [-87.72995813, 41.86619221]}, "properties": {"name": "Roosevelt & Keeler"}}, {"type": "Feature", "geometry": {"type": "Point", "coordinates": [-87.73480342, 41.86611191]}, "properties": {"name": "Roosevelt & Kostner"}}, {"type": "Feature", "geometry": {"type": "Point", "coordinates": [-87.74225929, 41.86602601]}, "properties": {"name": "Roosevelt & 47th Avenue"}}, {"type": "Feature", "geometry": {"type": "Point", "coordinates": [-87.74946854, 41.8659103]}, "properties": {"name": "Roosevelt & 50th Avenue"}}, {"type": "Feature", "geometry": {"type": "Point", "coordinates": [-87.75701849, 41.86582258]}, "properties": {"name": "5300 W Roosevelt"}}, {"type": "Feature", "geometry": {"type": "Point", "coordinates": [-87.76210458, 41.86572287]}, "properties": {"name": "5500 W Roosevelt"}}, {"type": "Feature", "geometry": {"type": "Point", "coordinates": [-87.77404879, 41.88032085]}, "properties": {"name": "Madison & Austin Terminal"}}, {"type": "Feature", "geometry": {"type": "Point", "coordinates": [-87.7699277, 41.88009561]}, "properties": {"name": "Madison & Menard"}}, {"type": "Feature", "geometry": {"type": "Point", "coordinates": [-87.7666227, 41.88015461]}, "properties": {"name": "Madison & Parkside"}}, {"type": "Feature", "geometry": {"type": "Point", "coordinates": [-87.75997294, 41.88020766]}, "properties": {"name": "Madison & Long"}}, {"type": "Feature", "geometry": {"type": "Point", "coordinates": [-87.75526579, 41.88027785]}, "properties": {"name": "Madison & Laramie"}}, {"type": "Feature", "geometry": {"type": "Point", "coordinates": [-87.74071078, 41.88048285]}, "properties": {"name": "Madison & Kenton"}}, {"type": "Feature", "geometry": {"type": "Point", "coordinates": [-87.72582924, 41.88062207]}, "properties": {"name": "Madison & Pulaski"}}, {"type": "Feature", "geometry": {"type": "Point", "coordinates": [-87.71382541, 41.88082173]}, "properties": {"name": "Madison & St. Louis"}}, {"type": "Feature", "geometry": {"type": "Point", "coordinates": [-87.70633877, 41.88090985]}, "properties": {"name": "Madison & Kedzie"}}, {"type": "Feature", "geometry": {"type": "Point", "coordinates": [-87.69601342, 41.88101643]}, "properties": {"name": "Madison & California"}}, {"type": "Feature", "geometry": {"type": "Point", "coordinates": [-87.68898223, 41.88107037]}, "properties": {"name": "Madison & Campbell"}}, {"type": "Feature", "geometry": {"type": "Point", "coordinates": [-87.67929877, 41.88123985]}, "properties": {"name": "Madison & Hoyne"}}, {"type": "Feature", "geometry": {"type": "Point", "coordinates": [-87.6742524, 41.88130459]}, "properties": {"name": "Madison & United Center (1900 W)"}}, {"type": "Feature", "geometry": {"type": "Point", "coordinates": [-87.66951876, 41.88137785]}, "properties": {"name": "Madison & Paulina"}}, {"type": "Feature", "geometry": {"type": "Point", "coordinates": [-87.65977076, 41.88153285]}, "properties": {"name": "Madison & Throop"}}, {"type": "Feature", "geometry": {"type": "Point", "coordinates": [-87.65490276, 41.88161585]}, "properties": {"name": "Madison & Aberdeen"}}, {"type": "Feature", "geometry": {"type": "Point", "coordinates": [-87.64728576, 41.88200785]}, "properties": {"name": "Halsted & Madison"}}, {"type": "Feature", "geometry": {"type": "Point", "coordinates": [-87.63998175, 41.88309185]}, "properties": {"name": "Washington & Canal"}}, {"type": "Feature", "geometry": {"type": "Point", "coordinates": [-87.63263075, 41.88314485]}, "properties": {"name": "Washington & Lasalle"}}, {"type": "Feature", "geometry": {"type": "Point", "coordinates": [-87.62597175, 41.88316685]}, "properties": {"name": "Washington & Wabash"}}, {"type": "Feature", "geometry": {"type": "Point", "coordinates": [-87.64104917, 41.8819552]}, "properties": {"name": "Madison & Clinton"}}, {"type": "Feature", "geometry": {"type": "Point", "coordinates": [-87.64948276, 41.88180785]}, "properties": {"name": "Madison & Peoria"}}, {"type": "Feature", "geometry": {"type": "Point", "coordinates": [-87.65420076, 41.88172985]}, "properties": {"name": "Madison & Aberdeen"}}, {"type": "Feature", "geometry": {"type": "Point", "coordinates": [-87.66204576, 41.88159485]}, "properties": {"name": "Madison & Loomis"}}, {"type": "Feature", "geometry": {"type": "Point", "coordinates": [-87.66657276, 41.88153085]}, "properties": {"name": "Madison & Ashland"}}, {"type": "Feature", "geometry": {"type": "Point", "coordinates": [-87.67424314, 41.88142657]}, "properties": {"name": "Madison & United Center (1900 W)"}}, {"type": "Feature", "geometry": {"type": "Point", "coordinates": [-87.67892876, 41.88134485]}, "properties": {"name": "Madison & Hoyne"}}, {"type": "Feature", "geometry": {"type": "Point", "coordinates": [-87.69855777, 41.88111085]}, "properties": {"name": "Madison & Francisco"}}, {"type": "Feature", "geometry": {"type": "Point", "coordinates": [-87.70346277, 41.88105985]}, "properties": {"name": "Madison & Albany"}}, {"type": "Feature", "geometry": {"type": "Point", "coordinates": [-87.71377777, 41.88095085]}, "properties": {"name": "Madison & St. Louis"}}, {"type": "Feature", "geometry": {"type": "Point", "coordinates": [-87.72098393, 41.88087339]}, "properties": {"name": "Madison & Hamlin"}}, {"type": "Feature", "geometry": {"type": "Point", "coordinates": [-87.74060378, 41.88065785]}, "properties": {"name": "Madison & Kenton"}}, {"type": "Feature", "geometry": {"type": "Point", "coordinates": [-87.7451286, 41.88061719]}, "properties": {"name": "Madison & Cicero"}}, {"type": "Feature", "geometry": {"type": "Point", "coordinates": [-87.75004459, 41.88055987]}, "properties": {"name": "Madison & Lavergne"}}, {"type": "Feature", "geometry": {"type": "Point", "coordinates": [-87.75996977, 41.88041895]}, "properties": {"name": "Madison & Long"}}, {"type": "Feature", "geometry": {"type": "Point", "coordinates": [-87.76639465, 41.88031841]}, "properties": {"name": "Madison & Parkside"}}, {"type": "Feature", "geometry": {"type": "Point", "coordinates": [-87.76966665, 41.88027341]}, "properties": {"name": "Madison & Menard"}}, {"type": "Feature", "geometry": {"type": "Point", "coordinates": [-87.774849, 41.89493338]}, "properties": {"name": "Chicago & Austin Terminal"}}, {"type": "Feature", "geometry": {"type": "Point", "coordinates": [-87.76368679, 41.89482085]}, "properties": {"name": "Chicago & Pine"}}, {"type": "Feature", "geometry": {"type": "Point", "coordinates": [-87.75325579, 41.89489985]}, "properties": {"name": "Chicago & Leclaire"}}, {"type": "Feature", "geometry": {"type": "Point", "coordinates": [-87.74594268, 41.89491352]}, "properties": {"name": "Chicago & Cicero"}}, {"type": "Feature", "geometry": {"type": "Point", "coordinates": [-87.73840331, 41.89507405]}, "properties": {"name": "Chicago & Kilbourn"}}, {"type": "Feature", "geometry": {"type": "Point", "coordinates": [-87.7310432, 41.89518804]}, "properties": {"name": "Chicago & Keeler"}}, {"type": "Feature", "geometry": {"type": "Point", "coordinates": [-87.72621657, 41.89529755]}, "properties": {"name": "Chicago & Pulaski"}}, {"type": "Feature", "geometry": {"type": "Point", "coordinates": [-87.71398902, 41.8954139]}, "properties": {"name": "Chicago & St. Louis"}}, {"type": "Feature", "geometry": {"type": "Point", "coordinates": [-87.70669667, 41.89548208]}, "properties": {"name": "Chicago & Kedzie"}}, {"type": "Feature", "geometry": {"type": "Point", "coordinates": [-87.6991223, 41.8955674]}, "properties": {"name": "Chicago & Grand"}}, {"type": "Feature", "geometry": {"type": "Point", "coordinates": [-87.6943615, 41.89559929]}, "properties": {"name": "Chicago & Washtenaw"}}, {"type": "Feature", "geometry": {"type": "Point", "coordinates": [-87.68207532, 41.89575645]}, "properties": {"name": "Chicago & Leavitt"}}, {"type": "Feature", "geometry": {"type": "Point", "coordinates": [-87.67719745, 41.89583864]}, "properties": {"name": "Chicago & Damen"}}, {"type": "Feature", "geometry": {"type": "Point", "coordinates": [-87.66747986, 41.8960009]}, "properties": {"name": "Chicago & Ashland"}}, {"type": "Feature", "geometry": {"type": "Point", "coordinates": [-87.65956623, 41.89612957]}, "properties": {"name": "Chicago & Elizabeth"}}, {"type": "Feature", "geometry": {"type": "Point", "coordinates": [-87.63591812, 41.89648162]}, "properties": {"name": "Chicago & Franklin (Brown line)"}}, {"type": "Feature", "geometry": {"type": "Point", "coordinates": [-87.62453585, 41.8966687]}, "properties": {"name": "Chicago & Michigan"}}, {"type": "Feature", "geometry": {"type": "Point", "coordinates": [-87.62038075, 41.89513486]}, "properties": {"name": "Fairbanks & Huron"}}, {"type": "Feature", "geometry": {"type": "Point", "coordinates": [-87.61799011, 41.8919258]}, "properties": {"name": "Grand & McClurg"}}, {"type": "Feature", "geometry": {"type": "Point", "coordinates": [-87.62022975, 41.89408886]}, "properties": {"name": "Fairbanks & Erie"}}, {"type": "Feature", "geometry": {"type": "Point", "coordinates": [-87.62031675, 41.89665286]}, "properties": {"name": "Fairbanks & Chicago"}}, {"type": "Feature", "geometry": {"type": "Point", "coordinates": [-87.62449911, 41.89680823]}, "properties": {"name": "Chicago & Michigan"}}, {"type": "Feature", "geometry": {"type": "Point", "coordinates": [-87.65740396, 41.89631654]}, "properties": {"name": "Chicago & Racine"}}, {"type": "Feature", "geometry": {"type": "Point", "coordinates": [-87.66708492, 41.89615926]}, "properties": {"name": "Chicago & Ashland"}}, {"type": "Feature", "geometry": {"type": "Point", "coordinates": [-87.689164, 41.89580432]}, "properties": {"name": "Chicago & Campbell"}}, {"type": "Feature", "geometry": {"type": "Point", "coordinates": [-87.69658078, 41.895738]}, "properties": {"name": "Chicago & California"}}, {"type": "Feature", "geometry": {"type": "Point", "coordinates": [-87.7026472, 41.89567444]}, "properties": {"name": "Chicago & Sacramento"}}, {"type": "Feature", "geometry": {"type": "Point", "coordinates": [-87.71376902, 41.89556983]}, "properties": {"name": "Chicago & St. Louis"}}, {"type": "Feature", "geometry": {"type": "Point", "coordinates": [-87.72350651, 41.89549515]}, "properties": {"name": "Chicago & Springfield"}}, {"type": "Feature", "geometry": {"type": "Point", "coordinates": [-87.72843492, 41.89538584]}, "properties": {"name": "Chicago & Karlov"}}, {"type": "Feature", "geometry": {"type": "Point", "coordinates": [-87.73335446, 41.89532077]}, "properties": {"name": "Chicago & Kildare"}}, {"type": "Feature", "geometry": {"type": "Point", "coordinates": [-87.74342006, 41.89513797]}, "properties": {"name": "Chicago & Kilpatrick"}}, {"type": "Feature", "geometry": {"type": "Point", "coordinates": [-87.75310502, 41.89504289]}, "properties": {"name": "Chicago & Leclaire"}}, {"type": "Feature", "geometry": {"type": "Point", "coordinates": [-87.75797067, 41.8950092]}, "properties": {"name": "Chicago & Lockwood"}}, {"type": "Feature", "geometry": {"type": "Point", "coordinates": [-87.8019919, 41.92385977]}, "properties": {"name": "Grand & Nordica Terminal"}}, {"type": "Feature", "geometry": {"type": "Point", "coordinates": [-87.7990238, 41.92351985]}, "properties": {"name": "Grand & Newland"}}, {"type": "Feature", "geometry": {"type": "Point", "coordinates": [-87.79541961, 41.92352604]}, "properties": {"name": "Grand & Oak Park"}}, {"type": "Feature", "geometry": {"type": "Point", "coordinates": [-87.7757188, 41.92049885]}, "properties": {"name": "Grand & Austin"}}, {"type": "Feature", "geometry": {"type": "Point", "coordinates": [-87.76835591, 41.91917204]}, "properties": {"name": "Grand & Major"}}, {"type": "Feature", "geometry": {"type": "Point", "coordinates": [-87.76097389, 41.91781292]}, "properties": {"name": "Grand & Long"}}, {"type": "Feature", "geometry": {"type": "Point", "coordinates": [-87.75609452, 41.91690181]}, "properties": {"name": "Grand & Laramie"}}, {"type": "Feature", "geometry": {"type": "Point", "coordinates": [-87.74946202, 41.91523178]}, "properties": {"name": "Grand & Lamon"}}, {"type": "Feature", "geometry": {"type": "Point", "coordinates": [-87.74366304, 41.91293462]}, "properties": {"name": "Grand & Kilpatrick"}}, {"type": "Feature", "geometry": {"type": "Point", "coordinates": [-87.73871678, 41.91097385]}, "properties": {"name": "Grand & Kilbourn"}}, {"type": "Feature", "geometry": {"type": "Point", "coordinates": [-87.73399978, 41.90911385]}, "properties": {"name": "Grand & Kildare"}}, {"type": "Feature", "geometry": {"type": "Point", "coordinates": [-87.72413076, 41.90515422]}, "properties": {"name": "Grand & Springfield"}}, {"type": "Feature", "geometry": {"type": "Point", "coordinates": [-87.71962375, 41.90343767]}, "properties": {"name": "Grand & Lawndale"}}, {"type": "Feature", "geometry": {"type": "Point", "coordinates": [-87.70205453, 41.89640674]}, "properties": {"name": "Grand & Sacramento Blvd."}}, {"type": "Feature", "geometry": {"type": "Point", "coordinates": [-87.68179483, 41.89069986]}, "properties": {"name": "Grand & Leavitt"}}, {"type": "Feature", "geometry": {"type": "Point", "coordinates": [-87.67702648, 41.89076764]}, "properties": {"name": "Grand & Damen"}}, {"type": "Feature", "geometry": {"type": "Point", "coordinates": [-87.67214748, 41.89084864]}, "properties": {"name": "Grand & Wood"}}, {"type": "Feature", "geometry": {"type": "Point", "coordinates": [-87.66731693, 41.89091134]}, "properties": {"name": "Grand & Ashland"}}, {"type": "Feature", "geometry": {"type": "Point", "coordinates": [-87.66234816, 41.89096638]}, "properties": {"name": "Grand & Noble"}}, {"type": "Feature", "geometry": {"type": "Point", "coordinates": [-87.65242966, 41.89106665]}, "properties": {"name": "Grand & Morgan"}}, {"type": "Feature", "geometry": {"type": "Point", "coordinates": [-87.6477829, 41.89112305]}, "properties": {"name": "Grand & Halsted/Milwaukee (Blue Line)"}}, {"type": "Feature", "geometry": {"type": "Point", "coordinates": [-87.64337122, 41.89117333]}, "properties": {"name": "530 W Grand"}}, {"type": "Feature", "geometry": {"type": "Point", "coordinates": [-87.63563923, 41.89151524]}, "properties": {"name": "Grand & Franklin"}}, {"type": "Feature", "geometry": {"type": "Point", "coordinates": [-87.62433173, 41.89088891]}, "properties": {"name": "Illinois (Lower) & Michigan"}}, {"type": "Feature", "geometry": {"type": "Point", "coordinates": [-87.61538175, 41.89104986]}, "properties": {"name": "Illinois & Peshtigo"}}, {"type": "Feature", "geometry": {"type": "Point", "coordinates": [-87.61017288, 41.89229697]}, "properties": {"name": "Navy Pier Terminal"}}, {"type": "Feature", "geometry": {"type": "Point", "coordinates": [-87.61539675, 41.89195686]}, "properties": {"name": "Grand & Peshtigo"}}, {"type": "Feature", "geometry": {"type": "Point", "coordinates": [-87.62790657, 41.89174401]}, "properties": {"name": "Grand & State (Red Line)"}}, {"type": "Feature", "geometry": {"type": "Point", "coordinates": [-87.63095075, 41.89170086]}, "properties": {"name": "Grand & Clark"}}, {"type": "Feature", "geometry": {"type": "Point", "coordinates": [-87.63976275, 41.89158686]}, "properties": {"name": "Grand & Kingsbury"}}, {"type": "Feature", "geometry": {"type": "Point", "coordinates": [-87.64986028, 41.89124477]}, "properties": {"name": "Grand & Peoria"}}, {"type": "Feature", "geometry": {"type": "Point", "coordinates": [-87.65726321, 41.89116736]}, "properties": {"name": "Grand & Racine"}}, {"type": "Feature", "geometry": {"type": "Point", "coordinates": [-87.66210566, 41.89108901]}, "properties": {"name": "Grand & Noble"}}, {"type": "Feature", "geometry": {"type": "Point", "coordinates": [-87.66696443, 41.89107175]}, "properties": {"name": "Grand & Ashland"}}, {"type": "Feature", "geometry": {"type": "Point", "coordinates": [-87.67186777, 41.89099455]}, "properties": {"name": "Grand & Wood"}}, {"type": "Feature", "geometry": {"type": "Point", "coordinates": [-87.6791861, 41.89087579]}, "properties": {"name": "Grand & Hoyne"}}, {"type": "Feature", "geometry": {"type": "Point", "coordinates": [-87.68413527, 41.89078215]}, "properties": {"name": "Grand & Oakley"}}, {"type": "Feature", "geometry": {"type": "Point", "coordinates": [-87.69405971, 41.8934173]}, "properties": {"name": "Grand & Washtenaw"}}, {"type": "Feature", "geometry": {"type": "Point", "coordinates": [-87.69907581, 41.89539966]}, "properties": {"name": "Grand & Chicago"}}, {"type": "Feature", "geometry": {"type": "Point", "coordinates": [-87.70622389, 41.89821039]}, "properties": {"name": "Grand & Kedzie"}}, {"type": "Feature", "geometry": {"type": "Point", "coordinates": [-87.71730531, 41.90262869]}, "properties": {"name": "Grand & Division"}}, {"type": "Feature", "geometry": {"type": "Point", "coordinates": [-87.72376262, 41.90517814]}, "properties": {"name": "Grand & Springfield"}}, {"type": "Feature", "geometry": {"type": "Point", "coordinates": [-87.72875964, 41.90720237]}, "properties": {"name": "Grand & Karlov"}}, {"type": "Feature", "geometry": {"type": "Point", "coordinates": [-87.73364843, 41.909109]}, "properties": {"name": "Grand & Kildare"}}, {"type": "Feature", "geometry": {"type": "Point", "coordinates": [-87.73844979, 41.91099985]}, "properties": {"name": "Grand & Kilbourn"}}, {"type": "Feature", "geometry": {"type": "Point", "coordinates": [-87.74327101, 41.91293572]}, "properties": {"name": "4700 W Grand"}}, {"type": "Feature", "geometry": {"type": "Point", "coordinates": [-87.74920043, 41.91532189]}, "properties": {"name": "Grand & Lamon"}}, {"type": "Feature", "geometry": {"type": "Point", "coordinates": [-87.75830298, 41.91744634]}, "properties": {"name": "Grand & Lockwood"}}, {"type": "Feature", "geometry": {"type": "Point", "coordinates": [-87.76629909, 41.91895179]}, "properties": {"name": "Grand & Central"}}, {"type": "Feature", "geometry": {"type": "Point", "coordinates": [-87.7730639, 41.92016031]}, "properties": {"name": "Grand & Marmora"}}, {"type": "Feature", "geometry": {"type": "Point", "coordinates": [-87.77797814, 41.92106456]}, "properties": {"name": "Grand & Meade"}}, {"type": "Feature", "geometry": {"type": "Point", "coordinates": [-87.78528291, 41.92266895]}, "properties": {"name": "Grand & Narragansett"}}, {"type": "Feature", "geometry": {"type": "Point", "coordinates": [-87.79269284, 41.92370555]}, "properties": {"name": "Grand & Normandy"}}, {"type": "Feature", "geometry": {"type": "Point", "coordinates": [-87.80052154, 41.92360689]}, "properties": {"name": "Grand & Sayre"}}, {"type": "Feature", "geometry": {"type": "Point", "coordinates": [-87.80129633, 41.90884724]}, "properties": {"name": "North Ave & Forest"}}, {"type": "Feature", "geometry": {"type": "Point", "coordinates": [-87.79517612, 41.90897814]}, "properties": {"name": "North Ave & Oak Park"}}, {"type": "Feature", "geometry": {"type": "Point", "coordinates": [-87.7901028, 41.90900385]}, "properties": {"name": "North Ave & East"}}, {"type": "Feature", "geometry": {"type": "Point", "coordinates": [-87.78511338, 41.90907058]}, "properties": {"name": "North Ave & Narragansett"}}, {"type": "Feature", "geometry": {"type": "Point", "coordinates": [-87.78091112, 41.90911768]}, "properties": {"name": "North Ave & Lombard"}}, {"type": "Feature", "geometry": {"type": "Point", "coordinates": [-87.76781071, 41.9092691]}, "properties": {"name": "North Ave & Major"}}, {"type": "Feature", "geometry": {"type": "Point", "coordinates": [-87.75801881, 41.90942434]}, "properties": {"name": "North Ave & Lockwood"}}, {"type": "Feature", "geometry": {"type": "Point", "coordinates": [-87.75114843, 41.90946205]}, "properties": {"name": "North Ave & Lavergne"}}, {"type": "Feature", "geometry": {"type": "Point", "coordinates": [-87.74378138, 41.90955855]}, "properties": {"name": "North Ave & Kilpatrick"}}, {"type": "Feature", "geometry": {"type": "Point", "coordinates": [-87.73446878, 41.90968585]}, "properties": {"name": "North Ave & Grand"}}, {"type": "Feature", "geometry": {"type": "Point", "coordinates": [-87.72176878, 41.90988785]}, "properties": {"name": "North Ave & Hamlin"}}, {"type": "Feature", "geometry": {"type": "Point", "coordinates": [-87.71680303, 41.90993089]}, "properties": {"name": "North Ave & Central Park"}}, {"type": "Feature", "geometry": {"type": "Point", "coordinates": [-87.70958137, 41.90998841]}, "properties": {"name": "North Ave & Spaulding"}}, {"type": "Feature", "geometry": {"type": "Point", "coordinates": [-87.70201119, 41.91007093]}, "properties": {"name": "North Ave & Humboldt"}}, {"type": "Feature", "geometry": {"type": "Point", "coordinates": [-87.69722928, 41.91012159]}, "properties": {"name": "North Ave & California"}}, {"type": "Feature", "geometry": {"type": "Point", "coordinates": [-87.68976133, 41.91023151]}, "properties": {"name": "North Ave & Campbell"}}, {"type": "Feature", "geometry": {"type": "Point", "coordinates": [-87.68486233, 41.91029451]}, "properties": {"name": "North Ave & Oakley"}}, {"type": "Feature", "geometry": {"type": "Point", "coordinates": [-87.68004555, 41.91036199]}, "properties": {"name": "North Ave & Hoyne"}}, {"type": "Feature", "geometry": {"type": "Point", "coordinates": [-87.67513974, 41.91047152]}, "properties": {"name": "North Ave & Wolcott"}}, {"type": "Feature", "geometry": {"type": "Point", "coordinates": [-87.67025074, 41.91054352]}, "properties": {"name": "North Ave & Paulina"}}, {"type": "Feature", "geometry": {"type": "Point", "coordinates": [-87.66629267, 41.91057765]}, "properties": {"name": "North Ave & Bosworth"}}, {"type": "Feature", "geometry": {"type": "Point", "coordinates": [-87.64898165, 41.91084571]}, "properties": {"name": "North Ave & Clybourn/Halsted (Red Line)"}}, {"type": "Feature", "geometry": {"type": "Point", "coordinates": [-87.64362808, 41.91093]}, "properties": {"name": "North Ave & Larrabee"}}, {"type": "Feature", "geometry": {"type": "Point", "coordinates": [-87.63679637, 41.91103594]}, "properties": {"name": "North Ave & North Park"}}, {"type": "Feature", "geometry": {"type": "Point", "coordinates": [-87.63120075, 41.91128786]}, "properties": {"name": "North Ave & Clark Terminal"}}, {"type": "Feature", "geometry": {"type": "Point", "coordinates": [-87.63453312, 41.91119444]}, "properties": {"name": "North Ave & Wells"}}, {"type": "Feature", "geometry": {"type": "Point", "coordinates": [-87.6407641, 41.91120497]}, "properties": {"name": "North Ave & Cleveland"}}, {"type": "Feature", "geometry": {"type": "Point", "coordinates": [-87.65101951, 41.91095093]}, "properties": {"name": "North Ave & Fremont"}}, {"type": "Feature", "geometry": {"type": "Point", "coordinates": [-87.66624828, 41.91070508]}, "properties": {"name": "North Ave & Bosworth"}}, {"type": "Feature", "geometry": {"type": "Point", "coordinates": [-87.67246631, 41.91062375]}, "properties": {"name": "North Ave & Wood"}}, {"type": "Feature", "geometry": {"type": "Point", "coordinates": [-87.67811477, 41.91055215]}, "properties": {"name": "North Ave & Milwaukee/Damen (Blue Line)"}}, {"type": "Feature", "geometry": {"type": "Point", "coordinates": [-87.68223346, 41.91050474]}, "properties": {"name": "North Ave & Leavitt"}}, {"type": "Feature", "geometry": {"type": "Point", "coordinates": [-87.68953613, 41.91037535]}, "properties": {"name": "North Ave & Campbell"}}, {"type": "Feature", "geometry": {"type": "Point", "coordinates": [-87.69891452, 41.91031109]}, "properties": {"name": "North Ave & Francisco"}}, {"type": "Feature", "geometry": {"type": "Point", "coordinates": [-87.70986121, 41.91018821]}, "properties": {"name": "North Ave & Spaulding"}}, {"type": "Feature", "geometry": {"type": "Point", "coordinates": [-87.71885991, 41.91010238]}, "properties": {"name": "North Ave & Lawndale"}}, {"type": "Feature", "geometry": {"type": "Point", "coordinates": [-87.72370125, 41.91002836]}, "properties": {"name": "North Ave & Springfield"}}, {"type": "Feature", "geometry": {"type": "Point", "coordinates": [-87.73111576, 41.9099418]}, "properties": {"name": "North Ave & Keeler"}}, {"type": "Feature", "geometry": {"type": "Point", "coordinates": [-87.74330852, 41.90977586]}, "properties": {"name": "North Ave & Kilpatrick"}}, {"type": "Feature", "geometry": {"type": "Point", "coordinates": [-87.7491015, 41.9096982]}, "properties": {"name": "North Ave & Lamon"}}, {"type": "Feature", "geometry": {"type": "Point", "coordinates": [-87.75252651, 41.90965449]}, "properties": {"name": "North Ave & Leclaire"}}, {"type": "Feature", "geometry": {"type": "Point", "coordinates": [-87.76781948, 41.9094635]}, "properties": {"name": "North Ave & Major"}}, {"type": "Feature", "geometry": {"type": "Point", "coordinates": [-87.77314765, 41.90939523]}, "properties": {"name": "North Ave & Mayfield"}}, {"type": "Feature", "geometry": {"type": "Point", "coordinates": [-87.77747584, 41.90930361]}, "properties": {"name": "North Ave & Meade"}}, {"type": "Feature", "geometry": {"type": "Point", "coordinates": [-87.78156899, 41.9092872]}, "properties": {"name": "North Ave & Merrimac"}}, {"type": "Feature", "geometry": {"type": "Point", "coordinates": [-87.78655993, 41.90922984]}, "properties": {"name": "North Ave & Nagle"}}, {"type": "Feature", "geometry": {"type": "Point", "coordinates": [-87.79450355, 41.90910866]}, "properties": {"name": "North Ave & Oak Park"}}, {"type": "Feature", "geometry": {"type": "Point", "coordinates": [-87.80013274, 41.90906605]}, "properties": {"name": "North Ave & Sayre"}}, {"type": "Feature", "geometry": {"type": "Point", "coordinates": [-87.80372982, 41.90900991]}, "properties": {"name": "North Ave & Neva"}}, {"type": "Feature", "geometry": {"type": "Point", "coordinates": [-87.80571282, 41.91056973]}, "properties": {"name": "Harlem & Wabansia"}}, {"type": "Feature", "geometry": {"type": "Point", "coordinates": [-87.6661827, 42.0192029]}, "properties": {"name": "Howard & Sheridan"}}, {"type": "Feature", "geometry": {"type": "Point", "coordinates": [-87.66511946, 42.01580855]}, "properties": {"name": "Sheridan & Jarvis"}}, {"type": "Feature", "geometry": {"type": "Point", "coordinates": [-87.66415077, 42.01376488]}, "properties": {"name": "Sheridan & Chase"}}, {"type": "Feature", "geometry": {"type": "Point", "coordinates": [-87.66295777, 42.01142187]}, "properties": {"name": "Sheridan & Estes"}}, {"type": "Feature", "geometry": {"type": "Point", "coordinates": [-87.66175477, 42.00778487]}, "properties": {"name": "Sheridan & Morse"}}, {"type": "Feature", "geometry": {"type": "Point", "coordinates": [-87.66092516, 42.00334945]}, "properties": {"name": "Sheridan & North Shore"}}, {"type": "Feature", "geometry": {"type": "Point", "coordinates": [-87.66081377, 42.00025487]}, "properties": {"name": "Sheridan & Arthur"}}, {"type": "Feature", "geometry": {"type": "Point", "coordinates": [-87.65845202, 41.99812855]}, "properties": {"name": "Sheridan & Winthrop"}}, {"type": "Feature", "geometry": {"type": "Point", "coordinates": [-87.65565977, 41.99624387]}, "properties": {"name": "Sheridan & Rosemont"}}, {"type": "Feature", "geometry": {"type": "Point", "coordinates": [-87.65553377, 41.99217487]}, "properties": {"name": "Sheridan & Glenlake"}}, {"type": "Feature", "geometry": {"type": "Point", "coordinates": [-87.6553847, 41.98746657]}, "properties": {"name": "Sheridan & Ardmore"}}, {"type": "Feature", "geometry": {"type": "Point", "coordinates": [-87.65525177, 41.98348887]}, "properties": {"name": "Sheridan & Bryn Mawr"}}, {"type": "Feature", "geometry": {"type": "Point", "coordinates": [-87.65516098, 41.97979032]}, "properties": {"name": "Sheridan & Balmoral"}}, {"type": "Feature", "geometry": {"type": "Point", "coordinates": [-87.65507477, 41.97622087]}, "properties": {"name": "Sheridan & Foster"}}, {"type": "Feature", "geometry": {"type": "Point", "coordinates": [-87.65500677, 41.97312787]}, "properties": {"name": "Sheridan & Argyle"}}, {"type": "Feature", "geometry": {"type": "Point", "coordinates": [-87.65489967, 41.96893552]}, "properties": {"name": "Sheridan & Lawrence"}}, {"type": "Feature", "geometry": {"type": "Point", "coordinates": [-87.65486377, 41.96525387]}, "properties": {"name": "Sheridan & Wilson"}}, {"type": "Feature", "geometry": {"type": "Point", "coordinates": [-87.65480777, 41.96186587]}, "properties": {"name": "Sheridan & Montrose"}}, {"type": "Feature", "geometry": {"type": "Point", "coordinates": [-87.65472376, 41.95934887]}, "properties": {"name": "4242 N Sheridan"}}, {"type": "Feature", "geometry": {"type": "Point", "coordinates": [-87.65469428, 41.95563487]}, "properties": {"name": "Sheridan & Cuyler"}}, {"type": "Feature", "geometry": {"type": "Point", "coordinates": [-87.65417389, 41.95263284]}, "properties": {"name": "Sheridan & Sheffield"}}, {"type": "Feature", "geometry": {"type": "Point", "coordinates": [-87.64766469, 41.95281553]}, "properties": {"name": "Sheridan & Pine Grove"}}, {"type": "Feature", "geometry": {"type": "Point", "coordinates": [-87.64455019, 41.9502855]}, "properties": {"name": "Lake Shore & Waveland"}}, {"type": "Feature", "geometry": {"type": "Point", "coordinates": [-87.64294996, 41.94756697]}, "properties": {"name": "Lake Shore & Brompton"}}, {"type": "Feature", "geometry": {"type": "Point", "coordinates": [-87.64202067, 41.94598204]}, "properties": {"name": "Lake Shore & Stratford"}}, {"type": "Feature", "geometry": {"type": "Point", "coordinates": [-87.64058447, 41.94322398]}, "properties": {"name": "Lake Shore & Roscoe"}}, {"type": "Feature", "geometry": {"type": "Point", "coordinates": [-87.63957448, 41.93857809]}, "properties": {"name": "Sheridan & Briar"}}, {"type": "Feature", "geometry": {"type": "Point", "coordinates": [-87.6395066, 41.93643247]}, "properties": {"name": "Sheridan & Wellington"}}, {"type": "Feature", "geometry": {"type": "Point", "coordinates": [-87.63943174, 41.93419414]}, "properties": {"name": "Sheridan & Surf"}}, {"type": "Feature", "geometry": {"type": "Point", "coordinates": [-87.63903655, 41.93131186]}, "properties": {"name": "Stockton & Wrightwood"}}, {"type": "Feature", "geometry": {"type": "Point", "coordinates": [-87.63778048, 41.92649591]}, "properties": {"name": "Stockton & Arlington"}}, {"type": "Feature", "geometry": {"type": "Point", "coordinates": [-87.63581172, 41.92212396]}, "properties": {"name": "Stockton & Webster"}}, {"type": "Feature", "geometry": {"type": "Point", "coordinates": [-87.63463893, 41.91880269]}, "properties": {"name": "Stockton & Armitage"}}, {"type": "Feature", "geometry": {"type": "Point", "coordinates": [-87.63185634, 41.91362314]}, "properties": {"name": "Stockton & LaSalle"}}, {"type": "Feature", "geometry": {"type": "Point", "coordinates": [-87.62624575, 41.90934986]}, "properties": {"name": "Lake Shore & Burton"}}, {"type": "Feature", "geometry": {"type": "Point", "coordinates": [-87.62554775, 41.90660286]}, "properties": {"name": "Lake Shore & Banks"}}, {"type": "Feature", "geometry": {"type": "Point", "coordinates": [-87.62515375, 41.90470986]}, "properties": {"name": "Lake Shore & Scott"}}, {"type": "Feature", "geometry": {"type": "Point", "coordinates": [-87.62475775, 41.90298186]}, "properties": {"name": "Lake Shore & Elm"}}, {"type": "Feature", "geometry": {"type": "Point", "coordinates": [-87.62428975, 41.90095486]}, "properties": {"name": "Lake Shore & Oak"}}, {"type": "Feature", "geometry": {"type": "Point", "coordinates": [-87.62423975, 41.89773886]}, "properties": {"name": "Michigan & Pearson"}}, {"type": "Feature", "geometry": {"type": "Point", "coordinates": [-87.62433375, 41.89269886]}, "properties": {"name": "Michigan & Ohio"}}, {"type": "Feature", "geometry": {"type": "Point", "coordinates": [-87.62424975, 41.88990186]}, "properties": {"name": "Michigan & Hubbard (Wrigley Bldg.)"}}, {"type": "Feature", "geometry": {"type": "Point", "coordinates": [-87.62462075, 41.88511186]}, "properties": {"name": "Michigan & Lake/Randolph"}}, {"type": "Feature", "geometry": {"type": "Point", "coordinates": [-87.63654775, 41.87940785]}, "properties": {"name": "Adams & S. Wacker"}}, {"type": "Feature", "geometry": {"type": "Point", "coordinates": [-87.62579375, 41.87577585]}, "properties": {"name": "Ida B Wells Drive & Wabash"}}, {"type": "Feature", "geometry": {"type": "Point", "coordinates": [-87.62761545, 41.87940926]}, "properties": {"name": "State & Adams"}}, {"type": "Feature", "geometry": {"type": "Point", "coordinates": [-87.6243233, 41.88469579]}, "properties": {"name": "Michigan & Randolph"}}, {"type": "Feature", "geometry": {"type": "Point", "coordinates": [-87.62443075, 41.88808386]}, "properties": {"name": "Michigan & E. Wacker"}}, {"type": "Feature", "geometry": {"type": "Point", "coordinates": [-87.62403975, 41.89177686]}, "properties": {"name": "Michigan & Grand"}}, {"type": "Feature", "geometry": {"type": "Point", "coordinates": [-87.62410975, 41.89480586]}, "properties": {"name": "Michigan & Huron"}}, {"type": "Feature", "geometry": {"type": "Point", "coordinates": [-87.62396575, 41.89807686]}, "properties": {"name": "Michigan & Chestnut"}}, {"type": "Feature", "geometry": {"type": "Point", "coordinates": [-87.62401375, 41.90065186]}, "properties": {"name": "Michigan & Oak"}}, {"type": "Feature", "geometry": {"type": "Point", "coordinates": [-87.62470175, 41.90330986]}, "properties": {"name": "Lake Shore & Elm"}}, {"type": "Feature", "geometry": {"type": "Point", "coordinates": [-87.62502975, 41.90495686]}, "properties": {"name": "Lake Shore & Scott"}}, {"type": "Feature", "geometry": {"type": "Point", "coordinates": [-87.62551275, 41.90705186]}, "properties": {"name": "Lake Shore & Banks"}}, {"type": "Feature", "geometry": {"type": "Point", "coordinates": [-87.62607222, 41.90968335]}, "properties": {"name": "Lake Shore & Burton"}}, {"type": "Feature", "geometry": {"type": "Point", "coordinates": [-87.63170075, 41.91378286]}, "properties": {"name": "Stockton & LaSalle"}}, {"type": "Feature", "geometry": {"type": "Point", "coordinates": [-87.63440381, 41.91875793]}, "properties": {"name": "Stockton & Armitage"}}, {"type": "Feature", "geometry": {"type": "Point", "coordinates": [-87.63563132, 41.92193127]}, "properties": {"name": "Stockton & Webster"}}, {"type": "Feature", "geometry": {"type": "Point", "coordinates": [-87.63773393, 41.92663915]}, "properties": {"name": "Stockton & Arlington"}}, {"type": "Feature", "geometry": {"type": "Point", "coordinates": [-87.63888937, 41.93132741]}, "properties": {"name": "Stockton & Wrightwood"}}, {"type": "Feature", "geometry": {"type": "Point", "coordinates": [-87.63926562, 41.93450366]}, "properties": {"name": "Sheridan & Surf"}}, {"type": "Feature", "geometry": {"type": "Point", "coordinates": [-87.63936476, 41.93676486]}, "properties": {"name": "Sheridan & Wellington"}}, {"type": "Feature", "geometry": {"type": "Point", "coordinates": [-87.63943264, 41.93870211]}, "properties": {"name": "Sheridan & Briar"}}, {"type": "Feature", "geometry": {"type": "Point", "coordinates": [-87.6394848, 41.94037961]}, "properties": {"name": "Inner Lake Shore Drive & Belmont"}}, {"type": "Feature", "geometry": {"type": "Point", "coordinates": [-87.64195728, 41.94618554]}, "properties": {"name": "Lake Shore & Stratford"}}, {"type": "Feature", "geometry": {"type": "Point", "coordinates": [-87.64292463, 41.94780477]}, "properties": {"name": "Lake Shore & Brompton"}}, {"type": "Feature", "geometry": {"type": "Point", "coordinates": [-87.64449708, 41.9504367]}, "properties": {"name": "Lake Shore & Waveland"}}, {"type": "Feature", "geometry": {"type": "Point", "coordinates": [-87.64804865, 41.95293381]}, "properties": {"name": "Sheridan & Pine Grove"}}, {"type": "Feature", "geometry": {"type": "Point", "coordinates": [-87.65234587, 41.95277054]}, "properties": {"name": "Sheridan & Fremont"}}, {"type": "Feature", "geometry": {"type": "Point", "coordinates": [-87.65446282, 41.95381946]}, "properties": {"name": "Sheridan & Dakin"}}, {"type": "Feature", "geometry": {"type": "Point", "coordinates": [-87.65453845, 41.95668273]}, "properties": {"name": "Sheridan & Belle Plaine"}}, {"type": "Feature", "geometry": {"type": "Point", "coordinates": [-87.65467309, 41.96146363]}, "properties": {"name": "Sheridan & Broadway/Montrose"}}, {"type": "Feature", "geometry": {"type": "Point", "coordinates": [-87.65471577, 41.96534887]}, "properties": {"name": "Sheridan & Wilson"}}, {"type": "Feature", "geometry": {"type": "Point", "coordinates": [-87.65475935, 41.96925775]}, "properties": {"name": "Sheridan & Lawrence"}}, {"type": "Feature", "geometry": {"type": "Point", "coordinates": [-87.65481377, 41.97175287]}, "properties": {"name": "Sheridan & Ainslie"}}, {"type": "Feature", "geometry": {"type": "Point", "coordinates": [-87.65490277, 41.97545887]}, "properties": {"name": "Sheridan & Winona"}}, {"type": "Feature", "geometry": {"type": "Point", "coordinates": [-87.65493766, 41.97820992]}, "properties": {"name": "Sheridan & Berwyn"}}, {"type": "Feature", "geometry": {"type": "Point", "coordinates": [-87.65507977, 41.98180087]}, "properties": {"name": "Sheridan & Catalpa"}}, {"type": "Feature", "geometry": {"type": "Point", "coordinates": [-87.65517677, 41.98544187]}, "properties": {"name": "Sheridan & Hollywood"}}, {"type": "Feature", "geometry": {"type": "Point", "coordinates": [-87.65531377, 41.99027987]}, "properties": {"name": "Sheridan & Thorndale"}}, {"type": "Feature", "geometry": {"type": "Point", "coordinates": [-87.65545277, 41.99478287]}, "properties": {"name": "Sheridan & Granville"}}, {"type": "Feature", "geometry": {"type": "Point", "coordinates": [-87.65694133, 41.99833948]}, "properties": {"name": "Sheridan & Kenmore"}}, {"type": "Feature", "geometry": {"type": "Point", "coordinates": [-87.66060636, 42.00038996]}, "properties": {"name": "Sheridan & Arthur (Red Line)"}}, {"type": "Feature", "geometry": {"type": "Point", "coordinates": [-87.66072259, 42.00387887]}, "properties": {"name": "Sheridan & North Shore"}}, {"type": "Feature", "geometry": {"type": "Point", "coordinates": [-87.66160377, 42.00814087]}, "properties": {"name": "Sheridan & Morse"}}, {"type": "Feature", "geometry": {"type": "Point", "coordinates": [-87.66280877, 42.01166787]}, "properties": {"name": "Sheridan & Estes"}}, {"type": "Feature", "geometry": {"type": "Point", "coordinates": [-87.66399977, 42.01412088]}, "properties": {"name": "Sheridan & Chase"}}, {"type": "Feature", "geometry": {"type": "Point", "coordinates": [-87.66502377, 42.01627588]}, "properties": {"name": "Sheridan & Jarvis"}}, {"type": "Feature", "geometry": {"type": "Point", "coordinates": [-87.64943333, 41.92552247]}, "properties": {"name": "Fullerton & Halsted"}}, {"type": "Feature", "geometry": {"type": "Point", "coordinates": [-87.65834376, 41.92537986]}, "properties": {"name": "Fullerton & Racine"}}, {"type": "Feature", "geometry": {"type": "Point", "coordinates": [-87.672669, 41.92519432]}, "properties": {"name": "Fullerton & Riverfront Mall (1800 W)"}}, {"type": "Feature", "geometry": {"type": "Point", "coordinates": [-87.68512482, 41.92498164]}, "properties": {"name": "Fullerton & Oakley"}}, {"type": "Feature", "geometry": {"type": "Point", "coordinates": [-87.69237973, 41.9249692]}, "properties": {"name": "Fullerton & Rockwell"}}, {"type": "Feature", "geometry": {"type": "Point", "coordinates": [-87.69726357, 41.92492559]}, "properties": {"name": "Fullerton & California"}}, {"type": "Feature", "geometry": {"type": "Point", "coordinates": [-87.70764902, 41.92486429]}, "properties": {"name": "Fullerton & Kedzie"}}, {"type": "Feature", "geometry": {"type": "Point", "coordinates": [-87.71187335, 41.92479423]}, "properties": {"name": "Fullerton & Kimball"}}, {"type": "Feature", "geometry": {"type": "Point", "coordinates": [-87.71686966, 41.92469324]}, "properties": {"name": "Fullerton & Central Park"}}, {"type": "Feature", "geometry": {"type": "Point", "coordinates": [-87.72190855, 41.92465896]}, "properties": {"name": "Fullerton & Hamlin"}}, {"type": "Feature", "geometry": {"type": "Point", "coordinates": [-87.72659582, 41.92460499]}, "properties": {"name": "Fullerton & Pulaski"}}, {"type": "Feature", "geometry": {"type": "Point", "coordinates": [-87.73154575, 41.9245344]}, "properties": {"name": "Fullerton & Keeler"}}, {"type": "Feature", "geometry": {"type": "Point", "coordinates": [-87.73395814, 41.92447166]}, "properties": {"name": "Fullerton & Kildare"}}, {"type": "Feature", "geometry": {"type": "Point", "coordinates": [-87.73891985, 41.92442698]}, "properties": {"name": "Fullerton & Kilbourn"}}, {"type": "Feature", "geometry": {"type": "Point", "coordinates": [-87.7437078, 41.9243588]}, "properties": {"name": "Fullerton & Kilpatrick"}}, {"type": "Feature", "geometry": {"type": "Point", "coordinates": [-87.75351703, 41.92422597]}, "properties": {"name": "Fullerton & Leclaire"}}, {"type": "Feature", "geometry": {"type": "Point", "coordinates": [-87.7585794, 41.92415264]}, "properties": {"name": "Fullerton & Lockwood"}}, {"type": "Feature", "geometry": {"type": "Point", "coordinates": [-87.76341886, 41.92407495]}, "properties": {"name": "Fullerton & Linder"}}, {"type": "Feature", "geometry": {"type": "Point", "coordinates": [-87.77559441, 41.92394548]}, "properties": {"name": "Fullerton & Austin"}}, {"type": "Feature", "geometry": {"type": "Point", "coordinates": [-87.7852903, 41.92379671]}, "properties": {"name": "Fullerton & Narragansett"}}, {"type": "Feature", "geometry": {"type": "Point", "coordinates": [-87.78686275, 41.92361783]}, "properties": {"name": "6450 W Fullerton"}}, {"type": "Feature", "geometry": {"type": "Point", "coordinates": [-87.78560573, 41.92586586]}, "properties": {"name": "2500 N Narragansett"}}, {"type": "Feature", "geometry": {"type": "Point", "coordinates": [-87.77335666, 41.9237652]}, "properties": {"name": "Fullerton & Marmora"}}, {"type": "Feature", "geometry": {"type": "Point", "coordinates": [-87.76362679, 41.92395485]}, "properties": {"name": "Fullerton & Linder"}}, {"type": "Feature", "geometry": {"type": "Point", "coordinates": [-87.75623979, 41.92404985]}, "properties": {"name": "Fullerton & Laramie"}}, {"type": "Feature", "geometry": {"type": "Point", "coordinates": [-87.75133177, 41.92409368]}, "properties": {"name": "Fullerton & Lavergne"}}, {"type": "Feature", "geometry": {"type": "Point", "coordinates": [-87.74650105, 41.92412034]}, "properties": {"name": "Fullerton & Cicero"}}, {"type": "Feature", "geometry": {"type": "Point", "coordinates": [-87.74161779, 41.92425086]}, "properties": {"name": "Fullerton & Kenton"}}, {"type": "Feature", "geometry": {"type": "Point", "coordinates": [-87.73668279, 41.92431486]}, "properties": {"name": "Fullerton & Kostner"}}, {"type": "Feature", "geometry": {"type": "Point", "coordinates": [-87.73300779, 41.92435986]}, "properties": {"name": "Fullerton & Tripp"}}, {"type": "Feature", "geometry": {"type": "Point", "coordinates": [-87.72934278, 41.92440086]}, "properties": {"name": "Fullerton & Karlov"}}, {"type": "Feature", "geometry": {"type": "Point", "coordinates": [-87.72441268, 41.92439488]}, "properties": {"name": "Fullerton & Springfield"}}, {"type": "Feature", "geometry": {"type": "Point", "coordinates": [-87.71953568, 41.92445188]}, "properties": {"name": "Fullerton & Lawndale"}}, {"type": "Feature", "geometry": {"type": "Point", "coordinates": [-87.71465969, 41.92450288]}, "properties": {"name": "Fullerton & St. Louis"}}, {"type": "Feature", "geometry": {"type": "Point", "coordinates": [-87.71088178, 41.92462986]}, "properties": {"name": "Fullerton & Spaulding"}}, {"type": "Feature", "geometry": {"type": "Point", "coordinates": [-87.70475178, 41.92468786]}, "properties": {"name": "Fullerton & Albany"}}, {"type": "Feature", "geometry": {"type": "Point", "coordinates": [-87.69756791, 41.92470593]}, "properties": {"name": "Fullerton & California"}}, {"type": "Feature", "geometry": {"type": "Point", "coordinates": [-87.69016349, 41.92480191]}, "properties": {"name": "Fullerton & Campbell"}}, {"type": "Feature", "geometry": {"type": "Point", "coordinates": [-87.68526325, 41.9248402]}, "properties": {"name": "Fullerton & Oakley"}}, {"type": "Feature", "geometry": {"type": "Point", "coordinates": [-87.66939611, 41.92506032]}, "properties": {"name": "Fullerton & Clybourn"}}, {"type": "Feature", "geometry": {"type": "Point", "coordinates": [-87.65608212, 41.92530713]}, "properties": {"name": "Fullerton & Seminary"}}, {"type": "Feature", "geometry": {"type": "Point", "coordinates": [-87.64897269, 41.92538902]}, "properties": {"name": "Fullerton & Halsted/Lincoln"}}, {"type": "Feature", "geometry": {"type": "Point", "coordinates": [-87.64843715, 41.9217712]}, "properties": {"name": "Webster & Halsted"}}, {"type": "Feature", "geometry": {"type": "Point", "coordinates": [-87.64411368, 41.92221756]}, "properties": {"name": "Lincoln & Webster"}}, {"type": "Feature", "geometry": {"type": "Point", "coordinates": [-87.7095452, 41.9979343]}, "properties": {"name": "Devon & Kedzie Terminal"}}, {"type": "Feature", "geometry": {"type": "Point", "coordinates": [-87.71352034, 41.99404496]}, "properties": {"name": "Lincoln & McCormick/Kimball"}}, {"type": "Feature", "geometry": {"type": "Point", "coordinates": [-87.70884339, 41.99116786]}, "properties": {"name": "Lincoln & Kedzie"}}, {"type": "Feature", "geometry": {"type": "Point", "coordinates": [-87.70526478, 41.98901587]}, "properties": {"name": "Lincoln & Whipple"}}, {"type": "Feature", "geometry": {"type": "Point", "coordinates": [-87.70149478, 41.98678587]}, "properties": {"name": "Lincoln & Francisco"}}, {"type": "Feature", "geometry": {"type": "Point", "coordinates": [-87.69683086, 41.98400757]}, "properties": {"name": "Lincoln & Washtenaw"}}, {"type": "Feature", "geometry": {"type": "Point", "coordinates": [-87.69274478, 41.97954887]}, "properties": {"name": "Lincoln & Balmoral"}}, {"type": "Feature", "geometry": {"type": "Point", "coordinates": [-87.64660832, 41.92381491]}, "properties": {"name": "Lincoln & Belden/Orchard"}}, {"type": "Feature", "geometry": {"type": "Point", "coordinates": [-87.64160822, 41.92022052]}, "properties": {"name": "Lincoln & Dickens/Cleveland"}}, {"type": "Feature", "geometry": {"type": "Point", "coordinates": [-87.63627052, 41.91837617]}, "properties": {"name": "Armitage & Clark"}}, {"type": "Feature", "geometry": {"type": "Point", "coordinates": [-87.63332563, 41.91261175]}, "properties": {"name": "LaSalle & Eugenie"}}, {"type": "Feature", "geometry": {"type": "Point", "coordinates": [-87.63317475, 41.90898186]}, "properties": {"name": "LaSalle & Burton"}}, {"type": "Feature", "geometry": {"type": "Point", "coordinates": [-87.63311906, 41.90558033]}, "properties": {"name": "LaSalle & Goethe"}}, {"type": "Feature", "geometry": {"type": "Point", "coordinates": [-87.63294775, 41.90033486]}, "properties": {"name": "LaSalle & Oak"}}, {"type": "Feature", "geometry": {"type": "Point", "coordinates": [-87.63288075, 41.89789886]}, "properties": {"name": "LaSalle & Chestnut"}}, {"type": "Feature", "geometry": {"type": "Point", "coordinates": [-87.62805875, 41.88590086]}, "properties": {"name": "State & Lake"}}, {"type": "Feature", "geometry": {"type": "Point", "coordinates": [-87.62783975, 41.88086385]}, "properties": {"name": "State & Monroe"}}, {"type": "Feature", "geometry": {"type": "Point", "coordinates": [-87.62776972, 41.87700065]}, "properties": {"name": "State & Van Buren"}}, {"type": "Feature", "geometry": {"type": "Point", "coordinates": [-87.62779675, 41.88435886]}, "properties": {"name": "State & Randolph"}}, {"type": "Feature", "geometry": {"type": "Point", "coordinates": [-87.62783675, 41.88669686]}, "properties": {"name": "State & E. Wacker"}}, {"type": "Feature", "geometry": {"type": "Point", "coordinates": [-87.63266939, 41.90063664]}, "properties": {"name": "LaSalle & Oak"}}, {"type": "Feature", "geometry": {"type": "Point", "coordinates": [-87.63279016, 41.90402808]}, "properties": {"name": "LaSalle & Division"}}, {"type": "Feature", "geometry": {"type": "Point", "coordinates": [-87.63292076, 41.90791073]}, "properties": {"name": "LaSalle & Schiller"}}, {"type": "Feature", "geometry": {"type": "Point", "coordinates": [-87.63298953, 41.91104182]}, "properties": {"name": "LaSalle & North Ave"}}, {"type": "Feature", "geometry": {"type": "Point", "coordinates": [-87.64086006, 41.92000115]}, "properties": {"name": "Lincoln & Dickens/Cleveland"}}, {"type": "Feature", "geometry": {"type": "Point", "coordinates": [-87.69055162, 41.97192554]}, "properties": {"name": "Lincoln & Argyle"}}, {"type": "Feature", "geometry": {"type": "Point", "coordinates": [-87.69267178, 41.97949287]}, "properties": {"name": "Lincoln & Balmoral"}}, {"type": "Feature", "geometry": {"type": "Point", "coordinates": [-87.69474187, 41.98305698]}, "properties": {"name": "Lincoln & Bryn Mawr"}}, {"type": "Feature", "geometry": {"type": "Point", "coordinates": [-87.70138378, 41.98693187]}, "properties": {"name": "Lincoln & Francisco"}}, {"type": "Feature", "geometry": {"type": "Point", "coordinates": [-87.70439078, 41.98870887]}, "properties": {"name": "Lincoln & Sacramento"}}, {"type": "Feature", "geometry": {"type": "Point", "coordinates": [-87.70688443, 41.99024362]}, "properties": {"name": "Lincoln & Peterson"}}, {"type": "Feature", "geometry": {"type": "Point", "coordinates": [-87.71141835, 41.99307213]}, "properties": {"name": "Lincoln & Jersey"}}, {"type": "Feature", "geometry": {"type": "Point", "coordinates": [-87.71151103, 41.99716575]}, "properties": {"name": "McCormick & Devon"}}, {"type": "Feature", "geometry": {"type": "Point", "coordinates": [-87.58643424, 41.78282681]}, "properties": {"name": "Stony Island & 62nd Street"}}, {"type": "Feature", "geometry": {"type": "Point", "coordinates": [-87.58653887, 41.78809199]}, "properties": {"name": "Stony Island & 59th Street"}}, {"type": "Feature", "geometry": {"type": "Point", "coordinates": [-87.58663573, 41.79134784]}, "properties": {"name": "Stony Island & 57th Drive"}}, {"type": "Feature", "geometry": {"type": "Point", "coordinates": [-87.58388592, 41.79543727]}, "properties": {"name": "S Hyde Park & 55th Street"}}, {"type": "Feature", "geometry": {"type": "Point", "coordinates": [-87.58395435, 41.7983581]}, "properties": {"name": "S Hyde Park & 54th Street"}}, {"type": "Feature", "geometry": {"type": "Point", "coordinates": [-87.58443019, 41.80085439]}, "properties": {"name": "5200 S S Hyde Park"}}, {"type": "Feature", "geometry": {"type": "Point", "coordinates": [-87.58671573, 41.80254484]}, "properties": {"name": "E Hyde Park & Cornell"}}, {"type": "Feature", "geometry": {"type": "Point", "coordinates": [-87.59214461, 41.8024764]}, "properties": {"name": "E Hyde Park & Dorchester"}}, {"type": "Feature", "geometry": {"type": "Point", "coordinates": [-87.59533282, 41.80244507]}, "properties": {"name": "E Hyde Park & Kimbark"}}, {"type": "Feature", "geometry": {"type": "Point", "coordinates": [-87.60228565, 41.80236479]}, "properties": {"name": "E Hyde Park & Ellis"}}, {"type": "Feature", "geometry": {"type": "Point", "coordinates": [-87.60785676, 41.80229598]}, "properties": {"name": "51st Street & Evans"}}, {"type": "Feature", "geometry": {"type": "Point", "coordinates": [-87.61116902, 41.8022137]}, "properties": {"name": "51st Street & St. Lawrence"}}, {"type": "Feature", "geometry": {"type": "Point", "coordinates": [-87.61548574, 41.80218784]}, "properties": {"name": "51st Street & King Drive"}}, {"type": "Feature", "geometry": {"type": "Point", "coordinates": [-87.61856488, 41.80209049]}, "properties": {"name": "51st Green Line Station"}}, {"type": "Feature", "geometry": {"type": "Point", "coordinates": [-87.62144351, 41.8219516]}, "properties": {"name": "Indiana Green Line Station"}}, {"type": "Feature", "geometry": {"type": "Point", "coordinates": [-87.62176374, 41.83643785]}, "properties": {"name": "Indiana & 32nd Street"}}, {"type": "Feature", "geometry": {"type": "Point", "coordinates": [-87.62312074, 41.84060985]}, "properties": {"name": "3000 S Michigan"}}, {"type": "Feature", "geometry": {"type": "Point", "coordinates": [-87.62325374, 41.84363785]}, "properties": {"name": "Michigan & 28th Street"}}, {"type": "Feature", "geometry": {"type": "Point", "coordinates": [-87.62350575, 41.84732085]}, "properties": {"name": "Michigan & 25th Street"}}, {"type": "Feature", "geometry": {"type": "Point", "coordinates": [-87.62374702, 41.8545283]}, "properties": {"name": "Michigan & 21st Street"}}, {"type": "Feature", "geometry": {"type": "Point", "coordinates": [-87.62383315, 41.85813463]}, "properties": {"name": "Michigan & 18th Street"}}, {"type": "Feature", "geometry": {"type": "Point", "coordinates": [-87.62396984, 41.86790056]}, "properties": {"name": "Michigan & Roosevelt"}}, {"type": "Feature", "geometry": {"type": "Point", "coordinates": [-87.62401209, 41.87051049]}, "properties": {"name": "Michigan & 9th Street"}}, {"type": "Feature", "geometry": {"type": "Point", "coordinates": [-87.62408775, 41.87340285]}, "properties": {"name": "Michigan & Balbo"}}, {"type": "Feature", "geometry": {"type": "Point", "coordinates": [-87.62433475, 41.87329585]}, "properties": {"name": "Michigan & Balbo"}}, {"type": "Feature", "geometry": {"type": "Point", "coordinates": [-87.62427657, 41.87029565]}, "properties": {"name": "Michigan & 9th Street"}}, {"type": "Feature", "geometry": {"type": "Point", "coordinates": [-87.62426473, 41.86712796]}, "properties": {"name": "Michigan & Roosevelt"}}, {"type": "Feature", "geometry": {"type": "Point", "coordinates": [-87.62419075, 41.86389085]}, "properties": {"name": "Michigan & 14th Street"}}, {"type": "Feature", "geometry": {"type": "Point", "coordinates": [-87.62404682, 41.85765363]}, "properties": {"name": "Michigan & 18th Street"}}, {"type": "Feature", "geometry": {"type": "Point", "coordinates": [-87.62396845, 41.85400371]}, "properties": {"name": "Michigan & 21st Street"}}, {"type": "Feature", "geometry": {"type": "Point", "coordinates": [-87.62377257, 41.84716429]}, "properties": {"name": "Michigan & 25th Street"}}, {"type": "Feature", "geometry": {"type": "Point", "coordinates": [-87.62366253, 41.84313628]}, "properties": {"name": "Michigan & 28th Street"}}, {"type": "Feature", "geometry": {"type": "Point", "coordinates": [-87.62355074, 41.84048785]}, "properties": {"name": "3000 S Michigan"}}, {"type": "Feature", "geometry": {"type": "Point", "coordinates": [-87.62347074, 41.83622985]}, "properties": {"name": "Michigan & 32nd Street"}}, {"type": "Feature", "geometry": {"type": "Point", "coordinates": [-87.62336274, 41.83276285]}, "properties": {"name": "Michigan & 34th Street"}}, {"type": "Feature", "geometry": {"type": "Point", "coordinates": [-87.62253713, 41.80197202]}, "properties": {"name": "51st Street & Michigan"}}, {"type": "Feature", "geometry": {"type": "Point", "coordinates": [-87.61856773, 41.80194995]}, "properties": {"name": "51st Green Line Station"}}, {"type": "Feature", "geometry": {"type": "Point", "coordinates": [-87.61252374, 41.80208084]}, "properties": {"name": "51st Street & Forrestville"}}, {"type": "Feature", "geometry": {"type": "Point", "coordinates": [-87.61001359, 41.80215141]}, "properties": {"name": "51st Street & Champlain"}}, {"type": "Feature", "geometry": {"type": "Point", "coordinates": [-87.60658511, 41.8021984]}, "properties": {"name": "51st Street & Cottage Grove"}}, {"type": "Feature", "geometry": {"type": "Point", "coordinates": [-87.60355559, 41.80223917]}, "properties": {"name": "E Hyde Park & Drexel"}}, {"type": "Feature", "geometry": {"type": "Point", "coordinates": [-87.59645458, 41.80232135]}, "properties": {"name": "E Hyde Park & Woodlawn"}}, {"type": "Feature", "geometry": {"type": "Point", "coordinates": [-87.59324493, 41.80236487]}, "properties": {"name": "E Hyde Park & Kenwood"}}, {"type": "Feature", "geometry": {"type": "Point", "coordinates": [-87.59017165, 41.8023947]}, "properties": {"name": "E Hyde Park & Blackstone"}}, {"type": "Feature", "geometry": {"type": "Point", "coordinates": [-87.586263, 41.80244857]}, "properties": {"name": "E Hyde Park & Cornell"}}, {"type": "Feature", "geometry": {"type": "Point", "coordinates": [-87.58462373, 41.80104084]}, "properties": {"name": "5200 S S Hyde Park"}}, {"type": "Feature", "geometry": {"type": "Point", "coordinates": [-87.58406373, 41.79792084]}, "properties": {"name": "S Hyde Park & 54th Street"}}, {"type": "Feature", "geometry": {"type": "Point", "coordinates": [-87.58402604, 41.79499456]}, "properties": {"name": "S Hyde Park & 55th Street"}}, {"type": "Feature", "geometry": {"type": "Point", "coordinates": [-87.58678073, 41.79122284]}, "properties": {"name": "Stony Island & 57th Street"}}, {"type": "Feature", "geometry": {"type": "Point", "coordinates": [-87.58668221, 41.78584559]}, "properties": {"name": "Stony Island & 60th Street"}}, {"type": "Feature", "geometry": {"type": "Point", "coordinates": [-87.6889086, 41.97295227]}, "properties": {"name": "Western & Winnemac"}}, {"type": "Feature", "geometry": {"type": "Point", "coordinates": [-87.68922736, 41.98125048]}, "properties": {"name": "Western & Catalpa"}}, {"type": "Feature", "geometry": {"type": "Point", "coordinates": [-87.68936247, 41.98487811]}, "properties": {"name": "Western & Hollywood"}}, {"type": "Feature", "geometry": {"type": "Point", "coordinates": [-87.68948592, 41.98851581]}, "properties": {"name": "Western & Thorndale"}}, {"type": "Feature", "geometry": {"type": "Point", "coordinates": [-87.68968678, 41.99400487]}, "properties": {"name": "Western & Granville"}}, {"type": "Feature", "geometry": {"type": "Point", "coordinates": [-87.68985878, 41.99945987]}, "properties": {"name": "Western & Arthur"}}, {"type": "Feature", "geometry": {"type": "Point", "coordinates": [-87.68994178, 42.00326487]}, "properties": {"name": "Western & North Shore"}}, {"type": "Feature", "geometry": {"type": "Point", "coordinates": [-87.69004878, 42.00707187]}, "properties": {"name": "Western & Morse"}}, {"type": "Feature", "geometry": {"type": "Point", "coordinates": [-87.69014078, 42.01083187]}, "properties": {"name": "Western & Estes"}}, {"type": "Feature", "geometry": {"type": "Point", "coordinates": [-87.69014104, 42.01559771]}, "properties": {"name": "Western & Jarvis"}}, {"type": "Feature", "geometry": {"type": "Point", "coordinates": [-87.68976534, 42.0182385]}, "properties": {"name": "Western & Birchwood Terminal"}}, {"type": "Feature", "geometry": {"type": "Point", "coordinates": [-87.69030178, 42.01404587]}, "properties": {"name": "Western & Chase"}}, {"type": "Feature", "geometry": {"type": "Point", "coordinates": [-87.69028416, 42.00874702]}, "properties": {"name": "Western & Lunt"}}, {"type": "Feature", "geometry": {"type": "Point", "coordinates": [-87.69023996, 42.0051463]}, "properties": {"name": "Western & Pratt"}}, {"type": "Feature", "geometry": {"type": "Point", "coordinates": [-87.69005178, 42.00145487]}, "properties": {"name": "Western & Albion"}}, {"type": "Feature", "geometry": {"type": "Point", "coordinates": [-87.68996042, 41.99599457]}, "properties": {"name": "Western & Rosemont"}}, {"type": "Feature", "geometry": {"type": "Point", "coordinates": [-87.68984509, 41.99236014]}, "properties": {"name": "Western & Glenlake"}}, {"type": "Feature", "geometry": {"type": "Point", "coordinates": [-87.68975078, 41.98870487]}, "properties": {"name": "Western & Thorndale"}}, {"type": "Feature", "geometry": {"type": "Point", "coordinates": [-87.68961478, 41.98505787]}, "properties": {"name": "Western & Hollywood"}}, {"type": "Feature", "geometry": {"type": "Point", "coordinates": [-87.68940906, 41.9796036]}, "properties": {"name": "Western & Balmoral"}}, {"type": "Feature", "geometry": {"type": "Point", "coordinates": [-87.68921192, 41.97310216]}, "properties": {"name": "Western & Winnemac"}}, {"type": "Feature", "geometry": {"type": "Point", "coordinates": [-87.70703879, 41.99730449]}, "properties": {"name": "Devon & Albany"}}, {"type": "Feature", "geometry": {"type": "Point", "coordinates": [-87.69980606, 41.99750968]}, "properties": {"name": "Devon & California"}}, {"type": "Feature", "geometry": {"type": "Point", "coordinates": [-87.69231873, 41.99763462]}, "properties": {"name": "Devon & Campbell"}}, {"type": "Feature", "geometry": {"type": "Point", "coordinates": [-87.68753303, 41.99770784]}, "properties": {"name": "Devon & Oakley"}}, {"type": "Feature", "geometry": {"type": "Point", "coordinates": [-87.67359832, 41.99796192]}, "properties": {"name": "Devon & Hermitage"}}, {"type": "Feature", "geometry": {"type": "Point", "coordinates": [-87.66803552, 41.99804699]}, "properties": {"name": "Devon & Greenview"}}, {"type": "Feature", "geometry": {"type": "Point", "coordinates": [-87.66318852, 41.99809899]}, "properties": {"name": "Devon & Lakewood"}}, {"type": "Feature", "geometry": {"type": "Point", "coordinates": [-87.66119519, 42.0056343]}, "properties": {"name": "Pratt & Sheridan"}}, {"type": "Feature", "geometry": {"type": "Point", "coordinates": [-87.66613107, 42.00551355]}, "properties": {"name": "Pratt & Glenwood"}}, {"type": "Feature", "geometry": {"type": "Point", "coordinates": [-87.66975299, 42.00545373]}, "properties": {"name": "Pratt & Ashland"}}, {"type": "Feature", "geometry": {"type": "Point", "coordinates": [-87.66792148, 42.00780288]}, "properties": {"name": "Morse & Greenview"}}, {"type": "Feature", "geometry": {"type": "Point", "coordinates": [-87.66380288, 42.00788431]}, "properties": {"name": "Morse & Lakewood"}}, {"type": "Feature", "geometry": {"type": "Point", "coordinates": [-87.66108036, 41.99825839]}, "properties": {"name": "Devon & Sheridan"}}, {"type": "Feature", "geometry": {"type": "Point", "coordinates": [-87.66519838, 41.9982154]}, "properties": {"name": "Devon & Glenwood"}}, {"type": "Feature", "geometry": {"type": "Point", "coordinates": [-87.67037701, 41.99815579]}, "properties": {"name": "Devon & Clark"}}, {"type": "Feature", "geometry": {"type": "Point", "coordinates": [-87.68249478, 41.99790487]}, "properties": {"name": "Devon & Hoyne"}}, {"type": "Feature", "geometry": {"type": "Point", "coordinates": [-87.68967571, 41.99781048]}, "properties": {"name": "Devon & Western"}}, {"type": "Feature", "geometry": {"type": "Point", "coordinates": [-87.69696061, 41.99765821]}, "properties": {"name": "Devon & Washtenaw"}}, {"type": "Feature", "geometry": {"type": "Point", "coordinates": [-87.70680616, 41.9974708]}, "properties": {"name": "Devon & Albany"}}, {"type": "Feature", "geometry": {"type": "Point", "coordinates": [-87.67431078, 42.01027987]}, "properties": {"name": "Clark & Greenleaf"}}, {"type": "Feature", "geometry": {"type": "Point", "coordinates": [-87.67379738, 42.00787446]}, "properties": {"name": "Clark & Morse"}}, {"type": "Feature", "geometry": {"type": "Point", "coordinates": [-87.67132908, 41.9999567]}, "properties": {"name": "Clark & Arthur"}}, {"type": "Feature", "geometry": {"type": "Point", "coordinates": [-87.67030677, 41.99620887]}, "properties": {"name": "Clark & Rosemont"}}, {"type": "Feature", "geometry": {"type": "Point", "coordinates": [-87.66945539, 41.98604933]}, "properties": {"name": "Clark & Edgewater"}}, {"type": "Feature", "geometry": {"type": "Point", "coordinates": [-87.66850777, 41.98175187]}, "properties": {"name": "Clark & Catalpa"}}, {"type": "Feature", "geometry": {"type": "Point", "coordinates": [-87.66852062, 41.97628325]}, "properties": {"name": "Clark & Foster"}}, {"type": "Feature", "geometry": {"type": "Point", "coordinates": [-87.66641577, 41.96354387]}, "properties": {"name": "Clark & Sunnyside"}}, {"type": "Feature", "geometry": {"type": "Point", "coordinates": [-87.66538864, 41.9599204]}, "properties": {"name": "Clark & Cullom"}}, {"type": "Feature", "geometry": {"type": "Point", "coordinates": [-87.66101441, 41.95267034]}, "properties": {"name": "Clark & Byron"}}, {"type": "Feature", "geometry": {"type": "Point", "coordinates": [-87.65675563, 41.94736181]}, "properties": {"name": "Clark & Addison"}}, {"type": "Feature", "geometry": {"type": "Point", "coordinates": [-87.65372542, 41.94361728]}, "properties": {"name": "Clark & Roscoe"}}, {"type": "Feature", "geometry": {"type": "Point", "coordinates": [-87.65090882, 41.94008829]}, "properties": {"name": "Clark & Belmont"}}, {"type": "Feature", "geometry": {"type": "Point", "coordinates": [-87.64402605, 41.93073245]}, "properties": {"name": "Clark & Drummond"}}, {"type": "Feature", "geometry": {"type": "Point", "coordinates": [-87.64151263, 41.92701948]}, "properties": {"name": "Clark & Arlington"}}, {"type": "Feature", "geometry": {"type": "Point", "coordinates": [-87.63952446, 41.92381723]}, "properties": {"name": "Clark & Belden"}}, {"type": "Feature", "geometry": {"type": "Point", "coordinates": [-87.63734206, 41.9202256]}, "properties": {"name": "Clark & Dickens"}}, {"type": "Feature", "geometry": {"type": "Point", "coordinates": [-87.63305944, 41.91322594]}, "properties": {"name": "Clark & W. LaSalle Drive"}}, {"type": "Feature", "geometry": {"type": "Point", "coordinates": [-87.63172475, 41.90950486]}, "properties": {"name": "Clark & Burton"}}, {"type": "Feature", "geometry": {"type": "Point", "coordinates": [-87.63158375, 41.90589086]}, "properties": {"name": "Clark & Goethe"}}, {"type": "Feature", "geometry": {"type": "Point", "coordinates": [-87.63150775, 41.90325186]}, "properties": {"name": "Clark & Elm"}}, {"type": "Feature", "geometry": {"type": "Point", "coordinates": [-87.63143175, 41.90066486]}, "properties": {"name": "Clark & Oak"}}, {"type": "Feature", "geometry": {"type": "Point", "coordinates": [-87.63136575, 41.89809286]}, "properties": {"name": "Clark & Chestnut"}}, {"type": "Feature", "geometry": {"type": "Point", "coordinates": [-87.63120275, 41.89175786]}, "properties": {"name": "Clark & Grand"}}, {"type": "Feature", "geometry": {"type": "Point", "coordinates": [-87.63103435, 41.88428526]}, "properties": {"name": "Clark & Randolph"}}, {"type": "Feature", "geometry": {"type": "Point", "coordinates": [-87.63084914, 41.87665236]}, "properties": {"name": "Clark & Van Buren"}}, {"type": "Feature", "geometry": {"type": "Point", "coordinates": [-87.62905673, 41.87251296]}, "properties": {"name": "Dearborn & Polk"}}, {"type": "Feature", "geometry": {"type": "Point", "coordinates": [-87.62915975, 41.87593485]}, "properties": {"name": "Dearborn & Ida B Wells Drive"}}, {"type": "Feature", "geometry": {"type": "Point", "coordinates": [-87.62929075, 41.88095585]}, "properties": {"name": "Dearborn & Monroe"}}, {"type": "Feature", "geometry": {"type": "Point", "coordinates": [-87.62939275, 41.88471585]}, "properties": {"name": "Dearborn & Randolph"}}, {"type": "Feature", "geometry": {"type": "Point", "coordinates": [-87.62945975, 41.88809986]}, "properties": {"name": "Dearborn & Marina City"}}, {"type": "Feature", "geometry": {"type": "Point", "coordinates": [-87.62964275, 41.89474786]}, "properties": {"name": "Dearborn & Huron"}}, {"type": "Feature", "geometry": {"type": "Point", "coordinates": [-87.63131675, 41.90175186]}, "properties": {"name": "Clark & Maple"}}, {"type": "Feature", "geometry": {"type": "Point", "coordinates": [-87.63143475, 41.90570586]}, "properties": {"name": "Clark & Goethe"}}, {"type": "Feature", "geometry": {"type": "Point", "coordinates": [-87.63146407, 41.90935048]}, "properties": {"name": "Clark & Burton"}}, {"type": "Feature", "geometry": {"type": "Point", "coordinates": [-87.63480236, 41.91655608]}, "properties": {"name": "Clark & Wisconsin"}}, {"type": "Feature", "geometry": {"type": "Point", "coordinates": [-87.63703664, 41.92008329]}, "properties": {"name": "Clark & Dickens"}}, {"type": "Feature", "geometry": {"type": "Point", "coordinates": [-87.63921544, 41.9236572]}, "properties": {"name": "Clark & Belden"}}, {"type": "Feature", "geometry": {"type": "Point", "coordinates": [-87.64214729, 41.92863926]}, "properties": {"name": "Clark & Deming"}}, {"type": "Feature", "geometry": {"type": "Point", "coordinates": [-87.64510093, 41.93321322]}, "properties": {"name": "Clark & Diversey"}}, {"type": "Feature", "geometry": {"type": "Point", "coordinates": [-87.65049529, 41.93986685]}, "properties": {"name": "Clark & Belmont"}}, {"type": "Feature", "geometry": {"type": "Point", "coordinates": [-87.65411834, 41.94437595]}, "properties": {"name": "Clark & Newport"}}, {"type": "Feature", "geometry": {"type": "Point", "coordinates": [-87.66072189, 41.95256349]}, "properties": {"name": "Clark & Byron"}}, {"type": "Feature", "geometry": {"type": "Point", "coordinates": [-87.6651516, 41.9597359]}, "properties": {"name": "Clark & Cullom"}}, {"type": "Feature", "geometry": {"type": "Point", "coordinates": [-87.66663072, 41.96518338]}, "properties": {"name": "Clark & Wilson"}}, {"type": "Feature", "geometry": {"type": "Point", "coordinates": [-87.66776177, 41.97178487]}, "properties": {"name": "Clark & Ainslie"}}, {"type": "Feature", "geometry": {"type": "Point", "coordinates": [-87.66814558, 41.97795134]}, "properties": {"name": "Clark & Berwyn"}}, {"type": "Feature", "geometry": {"type": "Point", "coordinates": [-87.66908572, 41.98536509]}, "properties": {"name": "Clark & Hollywood"}}, {"type": "Feature", "geometry": {"type": "Point", "coordinates": [-87.66979979, 41.98941751]}, "properties": {"name": "Clark & Ridge"}}, {"type": "Feature", "geometry": {"type": "Point", "coordinates": [-87.67039663, 41.99792858]}, "properties": {"name": "Clark & Devon"}}, {"type": "Feature", "geometry": {"type": "Point", "coordinates": [-87.67173911, 42.00163356]}, "properties": {"name": "Clark & Albion"}}, {"type": "Feature", "geometry": {"type": "Point", "coordinates": [-87.67386275, 42.00893291]}, "properties": {"name": "Clark & Lunt"}}, {"type": "Feature", "geometry": {"type": "Point", "coordinates": [-87.77501493, 41.90180593]}, "properties": {"name": "Division & Austin Terminal"}}, {"type": "Feature", "geometry": {"type": "Point", "coordinates": [-87.77061979, 41.90201685]}, "properties": {"name": "Division & Menard"}}, {"type": "Feature", "geometry": {"type": "Point", "coordinates": [-87.76394079, 41.90210985]}, "properties": {"name": "Division & Pine"}}, {"type": "Feature", "geometry": {"type": "Point", "coordinates": [-87.75835179, 41.90216885]}, "properties": {"name": "Division & Lockwood"}}, {"type": "Feature", "geometry": {"type": "Point", "coordinates": [-87.74848979, 41.90229585]}, "properties": {"name": "Division & Lamon"}}, {"type": "Feature", "geometry": {"type": "Point", "coordinates": [-87.7399488, 41.90242224]}, "properties": {"name": "Division & Kolmar"}}, {"type": "Feature", "geometry": {"type": "Point", "coordinates": [-87.73624478, 41.90246085]}, "properties": {"name": "Division & Kostner"}}, {"type": "Feature", "geometry": {"type": "Point", "coordinates": [-87.72886778, 41.90257185]}, "properties": {"name": "Division & Karlov"}}, {"type": "Feature", "geometry": {"type": "Point", "coordinates": [-87.72397378, 41.90263285]}, "properties": {"name": "Division & Springfield"}}, {"type": "Feature", "geometry": {"type": "Point", "coordinates": [-87.71794085, 41.90266919]}, "properties": {"name": "Division & Grand/Monticello"}}, {"type": "Feature", "geometry": {"type": "Point", "coordinates": [-87.69946677, 41.90284985]}, "properties": {"name": "Division & Francisco"}}, {"type": "Feature", "geometry": {"type": "Point", "coordinates": [-87.69198965, 41.90295503]}, "properties": {"name": "Division & Rockwell"}}, {"type": "Feature", "geometry": {"type": "Point", "coordinates": [-87.67985074, 41.90310268]}, "properties": {"name": "Division & Hoyne"}}, {"type": "Feature", "geometry": {"type": "Point", "coordinates": [-87.66769871, 41.90324485]}, "properties": {"name": "Division & Ashland (Blue Line)"}}, {"type": "Feature", "geometry": {"type": "Point", "coordinates": [-87.65423992, 41.90347969]}, "properties": {"name": "Division & Cherry"}}, {"type": "Feature", "geometry": {"type": "Point", "coordinates": [-87.63603612, 41.90376115]}, "properties": {"name": "311 W Division"}}, {"type": "Feature", "geometry": {"type": "Point", "coordinates": [-87.63315034, 41.90381058]}, "properties": {"name": "Division & LaSalle"}}, {"type": "Feature", "geometry": {"type": "Point", "coordinates": [-87.63171859, 41.90397512]}, "properties": {"name": "Division & Clark"}}, {"type": "Feature", "geometry": {"type": "Point", "coordinates": [-87.63821375, 41.90386086]}, "properties": {"name": "Division & Sedgwick"}}, {"type": "Feature", "geometry": {"type": "Point", "coordinates": [-87.64351086, 41.90379155]}, "properties": {"name": "Division & Larrabee"}}, {"type": "Feature", "geometry": {"type": "Point", "coordinates": [-87.65405666, 41.90363682]}, "properties": {"name": "Division & Cherry"}}, {"type": "Feature", "geometry": {"type": "Point", "coordinates": [-87.66248885, 41.9035135]}, "properties": {"name": "Division & Noble"}}, {"type": "Feature", "geometry": {"type": "Point", "coordinates": [-87.66729616, 41.90345663]}, "properties": {"name": "Division & Ashland (Blue Line)"}}, {"type": "Feature", "geometry": {"type": "Point", "coordinates": [-87.67218554, 41.90332335]}, "properties": {"name": "Division & Wood"}}, {"type": "Feature", "geometry": {"type": "Point", "coordinates": [-87.67949866, 41.90329]}, "properties": {"name": "Division & Hoyne"}}, {"type": "Feature", "geometry": {"type": "Point", "coordinates": [-87.69169477, 41.90300285]}, "properties": {"name": "Division & Rockwell"}}, {"type": "Feature", "geometry": {"type": "Point", "coordinates": [-87.69942155, 41.90297993]}, "properties": {"name": "Division & Francisco"}}, {"type": "Feature", "geometry": {"type": "Point", "coordinates": [-87.70689795, 41.90299331]}, "properties": {"name": "Division & Kedzie"}}, {"type": "Feature", "geometry": {"type": "Point", "coordinates": [-87.71635397, 41.9028567]}, "properties": {"name": "Division & Central Park"}}, {"type": "Feature", "geometry": {"type": "Point", "coordinates": [-87.72610397, 41.90275266]}, "properties": {"name": "Division & Pulaski"}}, {"type": "Feature", "geometry": {"type": "Point", "coordinates": [-87.73357903, 41.90263539]}, "properties": {"name": "Division & Kildare"}}, {"type": "Feature", "geometry": {"type": "Point", "coordinates": [-87.74354045, 41.90246487]}, "properties": {"name": "4659 W Division"}}, {"type": "Feature", "geometry": {"type": "Point", "coordinates": [-87.75076434, 41.90236627]}, "properties": {"name": "Division & Lavergne"}}, {"type": "Feature", "geometry": {"type": "Point", "coordinates": [-87.75814142, 41.90231051]}, "properties": {"name": "Division & Lockwood"}}, {"type": "Feature", "geometry": {"type": "Point", "coordinates": [-87.76802396, 41.90224493]}, "properties": {"name": "Division & Waller"}}, {"type": "Feature", "geometry": {"type": "Point", "coordinates": [-87.77281107, 41.90216135]}, "properties": {"name": "Division & Mayfield"}}, {"type": "Feature", "geometry": {"type": "Point", "coordinates": [-87.61397273, 41.72200483]}, "properties": {"name": "95th Street & King Drive"}}, {"type": "Feature", "geometry": {"type": "Point", "coordinates": [-87.61407517, 41.72566299]}, "properties": {"name": "King Drive & 93rd Street"}}, {"type": "Feature", "geometry": {"type": "Point", "coordinates": [-87.61424775, 41.72926244]}, "properties": {"name": "King Drive & 91st Street"}}, {"type": "Feature", "geometry": {"type": "Point", "coordinates": [-87.61433614, 41.73469966]}, "properties": {"name": "King Drive & 88th Street"}}, {"type": "Feature", "geometry": {"type": "Point", "coordinates": [-87.61441135, 41.73837516]}, "properties": {"name": "King Drive & 86th Street"}}, {"type": "Feature", "geometry": {"type": "Point", "coordinates": [-87.61450635, 41.74210816]}, "properties": {"name": "King Drive & 84th Street"}}, {"type": "Feature", "geometry": {"type": "Point", "coordinates": [-87.61461639, 41.74575587]}, "properties": {"name": "King Drive & 82nd Street"}}, {"type": "Feature", "geometry": {"type": "Point", "coordinates": [-87.61484079, 41.74938671]}, "properties": {"name": "King Drive & 80th Street"}}, {"type": "Feature", "geometry": {"type": "Point", "coordinates": [-87.61491116, 41.75308308]}, "properties": {"name": "King Drive & 78th Street"}}, {"type": "Feature", "geometry": {"type": "Point", "coordinates": [-87.61493395, 41.75668216]}, "properties": {"name": "King Drive & 76th Street"}}, {"type": "Feature", "geometry": {"type": "Point", "coordinates": [-87.61511504, 41.76040449]}, "properties": {"name": "King Drive & 74th Street"}}, {"type": "Feature", "geometry": {"type": "Point", "coordinates": [-87.61513734, 41.76583944]}, "properties": {"name": "King Drive & 71st Street"}}, {"type": "Feature", "geometry": {"type": "Point", "coordinates": [-87.61528297, 41.76948011]}, "properties": {"name": "King Drive & 69th Street"}}, {"type": "Feature", "geometry": {"type": "Point", "coordinates": [-87.61535675, 41.77265206]}, "properties": {"name": "King Drive & Marquette Rd/S. Chicago"}}, {"type": "Feature", "geometry": {"type": "Point", "coordinates": [-87.61540794, 41.77497836]}, "properties": {"name": "King Drive & 66th Street"}}, {"type": "Feature", "geometry": {"type": "Point", "coordinates": [-87.61550273, 41.77831484]}, "properties": {"name": "King Drive & 64th Street"}}, {"type": "Feature", "geometry": {"type": "Point", "coordinates": [-87.61560474, 41.78223842]}, "properties": {"name": "King Drive & 62nd Street"}}, {"type": "Feature", "geometry": {"type": "Point", "coordinates": [-87.61568785, 41.78563301]}, "properties": {"name": "King Drive & 60th Street"}}, {"type": "Feature", "geometry": {"type": "Point", "coordinates": [-87.61577042, 41.78931441]}, "properties": {"name": "King Drive & 58th Street"}}, {"type": "Feature", "geometry": {"type": "Point", "coordinates": [-87.61590438, 41.79441006]}, "properties": {"name": "King Drive & Garfield"}}, {"type": "Feature", "geometry": {"type": "Point", "coordinates": [-87.61596707, 41.79681253]}, "properties": {"name": "King Drive & 54th Street"}}, {"type": "Feature", "geometry": {"type": "Point", "coordinates": [-87.61605332, 41.80026221]}, "properties": {"name": "5200 S King Drive"}}, {"type": "Feature", "geometry": {"type": "Point", "coordinates": [-87.61632151, 41.80408606]}, "properties": {"name": "King Drive & 50th Street"}}, {"type": "Feature", "geometry": {"type": "Point", "coordinates": [-87.61643377, 41.80777905]}, "properties": {"name": "King Drive & 48th Street"}}, {"type": "Feature", "geometry": {"type": "Point", "coordinates": [-87.61654932, 41.811389]}, "properties": {"name": "King Drive & 46th Street"}}, {"type": "Feature", "geometry": {"type": "Point", "coordinates": [-87.61662441, 41.81497058]}, "properties": {"name": "King Drive & 44th Street"}}, {"type": "Feature", "geometry": {"type": "Point", "coordinates": [-87.61673212, 41.81861569]}, "properties": {"name": "King Drive & 42nd Street"}}, {"type": "Feature", "geometry": {"type": "Point", "coordinates": [-87.6168457, 41.82258158]}, "properties": {"name": "King Drive & Oakwood Boulevard"}}, {"type": "Feature", "geometry": {"type": "Point", "coordinates": [-87.61693552, 41.82574337]}, "properties": {"name": "King Drive & 38th Street"}}, {"type": "Feature", "geometry": {"type": "Point", "coordinates": [-87.61701365, 41.82920784]}, "properties": {"name": "3600 S King Drive"}}, {"type": "Feature", "geometry": {"type": "Point", "coordinates": [-87.61690774, 41.83349285]}, "properties": {"name": "King Drive & 33rd Place"}}, {"type": "Feature", "geometry": {"type": "Point", "coordinates": [-87.61697183, 41.83679151]}, "properties": {"name": "King Drive & 32nd Street"}}, {"type": "Feature", "geometry": {"type": "Point", "coordinates": [-87.61677398, 41.83837508]}, "properties": {"name": "31st Street & King Drive"}}, {"type": "Feature", "geometry": {"type": "Point", "coordinates": [-87.61717574, 41.84229785]}, "properties": {"name": "King Drive & 29th Street"}}, {"type": "Feature", "geometry": {"type": "Point", "coordinates": [-87.61722574, 41.84551585]}, "properties": {"name": "King Drive & 26th Street"}}, {"type": "Feature", "geometry": {"type": "Point", "coordinates": [-87.62183513, 41.85277856]}, "properties": {"name": "Cermak & Indiana"}}, {"type": "Feature", "geometry": {"type": "Point", "coordinates": [-87.61782217, 41.84732692]}, "properties": {"name": "King Drive & 25th Street"}}, {"type": "Feature", "geometry": {"type": "Point", "coordinates": [-87.6177213, 41.84337173]}, "properties": {"name": "2800 S King Drive"}}, {"type": "Feature", "geometry": {"type": "Point", "coordinates": [-87.61758666, 41.8402478]}, "properties": {"name": "3000 S King Drive"}}, {"type": "Feature", "geometry": {"type": "Point", "coordinates": [-87.61754592, 41.83631558]}, "properties": {"name": "King Drive & 32nd Street"}}, {"type": "Feature", "geometry": {"type": "Point", "coordinates": [-87.61718231, 41.82927849]}, "properties": {"name": "3600 S King Drive"}}, {"type": "Feature", "geometry": {"type": "Point", "coordinates": [-87.61714741, 41.825547]}, "properties": {"name": "King Drive & 38th Street"}}, {"type": "Feature", "geometry": {"type": "Point", "coordinates": [-87.61704193, 41.82260792]}, "properties": {"name": "King Drive & Oakwood Boulevard"}}, {"type": "Feature", "geometry": {"type": "Point", "coordinates": [-87.61695139, 41.81828404]}, "properties": {"name": "King Drive & 42nd Street"}}, {"type": "Feature", "geometry": {"type": "Point", "coordinates": [-87.61685976, 41.8147141]}, "properties": {"name": "King Drive & 44th Street"}}, {"type": "Feature", "geometry": {"type": "Point", "coordinates": [-87.61675425, 41.81105484]}, "properties": {"name": "King Drive & 46th Street"}}, {"type": "Feature", "geometry": {"type": "Point", "coordinates": [-87.61663072, 41.80734462]}, "properties": {"name": "King Drive & 48th Street"}}, {"type": "Feature", "geometry": {"type": "Point", "coordinates": [-87.61656264, 41.8037241]}, "properties": {"name": "King Drive & 50th Street"}}, {"type": "Feature", "geometry": {"type": "Point", "coordinates": [-87.61621908, 41.80040278]}, "properties": {"name": "5200 S King Drive"}}, {"type": "Feature", "geometry": {"type": "Point", "coordinates": [-87.61610071, 41.79648065]}, "properties": {"name": "King Drive & 54th Street"}}, {"type": "Feature", "geometry": {"type": "Point", "coordinates": [-87.61604169, 41.79423447]}, "properties": {"name": "King Drive & Garfield"}}, {"type": "Feature", "geometry": {"type": "Point", "coordinates": [-87.61596321, 41.7910012]}, "properties": {"name": "King Drive & 57th Street"}}, {"type": "Feature", "geometry": {"type": "Point", "coordinates": [-87.6158447, 41.78737967]}, "properties": {"name": "King Drive & 59th Street"}},