{"type": "FeatureCollection", "city": "seattle", "center": [-122.2579, 47.5656], "n_total": 6355, "features": [{"type": "Feature", "geometry": {"type": "Point", "coordinates": [-122.336533, 47.6051369]}, "properties": {"name": "1st Ave & Spring St"}}, {"type": "Feature", "geometry": {"type": "Point", "coordinates": [-122.284897, 47.6658859]}, "properties": {"name": "40th Ave NE & NE 51st St"}}, {"type": "Feature", "geometry": {"type": "Point", "coordinates": [-122.285667, 47.6685791]}, "properties": {"name": "NE 55th St & 39th Ave NE"}}, {"type": "Feature", "geometry": {"type": "Point", "coordinates": [-122.2883, 47.6685791]}, "properties": {"name": "NE 55th St & 37th Ave NE"}}, {"type": "Feature", "geometry": {"type": "Point", "coordinates": [-122.290512, 47.6685791]}, "properties": {"name": "NE 55th St & 35th Ave NE"}}, {"type": "Feature", "geometry": {"type": "Point", "coordinates": [-122.293015, 47.6685829]}, "properties": {"name": "NE 55th St & 33rd Ave NE"}}, {"type": "Feature", "geometry": {"type": "Point", "coordinates": [-122.295448, 47.6685905]}, "properties": {"name": "NE 55th St & 30th Ave NE"}}, {"type": "Feature", "geometry": {"type": "Point", "coordinates": [-122.298859, 47.6685944]}, "properties": {"name": "NE 55th St & 27th Ave NE"}}, {"type": "Feature", "geometry": {"type": "Point", "coordinates": [-122.30098, 47.6685944]}, "properties": {"name": "NE 55th St & 25th Ave NE"}}, {"type": "Feature", "geometry": {"type": "Point", "coordinates": [-122.30378, 47.6684799]}, "properties": {"name": "Ravenna Ave NE & Ravenna Pl NE"}}, {"type": "Feature", "geometry": {"type": "Point", "coordinates": [-122.334969, 47.6061363]}, "properties": {"name": "Spring St & 3rd Ave"}}, {"type": "Feature", "geometry": {"type": "Point", "coordinates": [-122.330597, 47.6167107]}, "properties": {"name": "Howell St & Minor Ave"}}, {"type": "Feature", "geometry": {"type": "Point", "coordinates": [-122.305405, 47.6695518]}, "properties": {"name": "NE Ravenna Blvd & Park Rd NE"}}, {"type": "Feature", "geometry": {"type": "Point", "coordinates": [-122.30658, 47.6682739]}, "properties": {"name": "20th Ave NE & NE 55th St"}}, {"type": "Feature", "geometry": {"type": "Point", "coordinates": [-122.306602, 47.6662827]}, "properties": {"name": "20th Ave NE & NE 52nd St"}}, {"type": "Feature", "geometry": {"type": "Point", "coordinates": [-122.307114, 47.6649284]}, "properties": {"name": "NE 50th St & 19th Ave NE"}}, {"type": "Feature", "geometry": {"type": "Point", "coordinates": [-122.311172, 47.664959]}, "properties": {"name": "NE 50th St & 16th Ave NE"}}, {"type": "Feature", "geometry": {"type": "Point", "coordinates": [-122.329338, 47.6300545]}, "properties": {"name": "Fairview Ave E & E Nelson Pl"}}, {"type": "Feature", "geometry": {"type": "Point", "coordinates": [-122.333542, 47.6267509]}, "properties": {"name": "Fairview Ave N & Aloha St"}}, {"type": "Feature", "geometry": {"type": "Point", "coordinates": [-122.333092, 47.6069107]}, "properties": {"name": "Spring St & 4th Ave"}}, {"type": "Feature", "geometry": {"type": "Point", "coordinates": [-122.33445, 47.6235619]}, "properties": {"name": "Fairview Ave N & Mercer St"}}, {"type": "Feature", "geometry": {"type": "Point", "coordinates": [-122.334435, 47.6205864]}, "properties": {"name": "Fairview Ave N & Thomas St"}}, {"type": "Feature", "geometry": {"type": "Point", "coordinates": [-122.333817, 47.6175003]}, "properties": {"name": "Boren Ave & Virginia St"}}, {"type": "Feature", "geometry": {"type": "Point", "coordinates": [-122.334198, 47.6188736]}, "properties": {"name": "Fairview Ave & Denny Way"}}, {"type": "Feature", "geometry": {"type": "Point", "coordinates": [-122.329239, 47.6085281]}, "properties": {"name": "Spring St & 8th Ave"}}, {"type": "Feature", "geometry": {"type": "Point", "coordinates": [-122.334229, 47.6222763]}, "properties": {"name": "Fairview Ave N & Harrison St"}}, {"type": "Feature", "geometry": {"type": "Point", "coordinates": [-122.33345, 47.6266136]}, "properties": {"name": "Fairview Ave N & Valley St"}}, {"type": "Feature", "geometry": {"type": "Point", "coordinates": [-122.334106, 47.6260338]}, "properties": {"name": "Valley St & Fairview Ave N"}}, {"type": "Feature", "geometry": {"type": "Point", "coordinates": [-122.329185, 47.6299744]}, "properties": {"name": "Fairview Ave E & Yale Ave N"}}, {"type": "Feature", "geometry": {"type": "Point", "coordinates": [-122.31266, 47.6648293]}, "properties": {"name": "NE 50th St & University Way NE"}}, {"type": "Feature", "geometry": {"type": "Point", "coordinates": [-122.310432, 47.664814]}, "properties": {"name": "NE 50th St & 16th Ave NE"}}, {"type": "Feature", "geometry": {"type": "Point", "coordinates": [-122.325897, 47.6089478]}, "properties": {"name": "Madison St & Terry Ave"}}, {"type": "Feature", "geometry": {"type": "Point", "coordinates": [-122.336334, 47.6130257]}, "properties": {"name": "Olive Way & 6th Ave"}}, {"type": "Feature", "geometry": {"type": "Point", "coordinates": [-122.306404, 47.6650276]}, "properties": {"name": "20th Ave NE & NE 50th St"}}, {"type": "Feature", "geometry": {"type": "Point", "coordinates": [-122.306404, 47.6666412]}, "properties": {"name": "20th Ave NE & NE 52nd St"}}, {"type": "Feature", "geometry": {"type": "Point", "coordinates": [-122.306389, 47.6681633]}, "properties": {"name": "20th Ave NE & NE 54th St"}}, {"type": "Feature", "geometry": {"type": "Point", "coordinates": [-122.305595, 47.669239]}, "properties": {"name": "NE Ravenna Blvd & 21st Ave NE"}}, {"type": "Feature", "geometry": {"type": "Point", "coordinates": [-122.303864, 47.6680031]}, "properties": {"name": "Ravenna Ave NE & NE 54th St"}}, {"type": "Feature", "geometry": {"type": "Point", "coordinates": [-122.300217, 47.6684494]}, "properties": {"name": "NE 55th St & 25th Ave NE"}}, {"type": "Feature", "geometry": {"type": "Point", "coordinates": [-122.298218, 47.6684494]}, "properties": {"name": "NE 55th St & 27th Ave NE"}}, {"type": "Feature", "geometry": {"type": "Point", "coordinates": [-122.295074, 47.6684494]}, "properties": {"name": "NE 55th St & 30th Ave NE"}}, {"type": "Feature", "geometry": {"type": "Point", "coordinates": [-122.29232, 47.6684494]}, "properties": {"name": "NE 55th St & 33rd Ave NE"}}, {"type": "Feature", "geometry": {"type": "Point", "coordinates": [-122.322517, 47.6103554]}, "properties": {"name": "Madison St & Boylston Ave"}}, {"type": "Feature", "geometry": {"type": "Point", "coordinates": [-122.33416, 47.6139374]}, "properties": {"name": "Olive Way & 8th Ave"}}, {"type": "Feature", "geometry": {"type": "Point", "coordinates": [-122.29039, 47.6684456]}, "properties": {"name": "NE 55th St & 35th Ave NE"}}, {"type": "Feature", "geometry": {"type": "Point", "coordinates": [-122.288803, 47.6684456]}, "properties": {"name": "NE 55th St & 36th Ave NE"}}, {"type": "Feature", "geometry": {"type": "Point", "coordinates": [-122.284668, 47.6619339]}, "properties": {"name": "40th Ave NE & NE 46th St"}}, {"type": "Feature", "geometry": {"type": "Point", "coordinates": [-122.284698, 47.6650925]}, "properties": {"name": "40th Ave NE & NE 50th St"}}, {"type": "Feature", "geometry": {"type": "Point", "coordinates": [-122.285049, 47.6684418]}, "properties": {"name": "NE 55th St & 40th Ave NE"}}, {"type": "Feature", "geometry": {"type": "Point", "coordinates": [-122.279121, 47.6690025]}, "properties": {"name": "NE 55th St & 45th Ave NE"}}, {"type": "Feature", "geometry": {"type": "Point", "coordinates": [-122.275909, 47.6691818]}, "properties": {"name": "NE 55th St & Princeton Ave NE"}}, {"type": "Feature", "geometry": {"type": "Point", "coordinates": [-122.286484, 47.6615753]}, "properties": {"name": "Sand Point Way NE & 38th Ave NE"}}, {"type": "Feature", "geometry": {"type": "Point", "coordinates": [-122.284119, 47.6634483]}, "properties": {"name": "Sand Point Way NE & 40th Ave NE"}}, {"type": "Feature", "geometry": {"type": "Point", "coordinates": [-122.282867, 47.6646538]}, "properties": {"name": "Sand Point Way NE & NE 50th St"}}, {"type": "Feature", "geometry": {"type": "Point", "coordinates": [-122.28035, 47.6670799]}, "properties": {"name": "Sand Point Way NE & NE 52nd St"}}, {"type": "Feature", "geometry": {"type": "Point", "coordinates": [-122.275978, 47.6681938]}, "properties": {"name": "Sand Point Way NE & Princeton Ave NE"}}, {"type": "Feature", "geometry": {"type": "Point", "coordinates": [-122.270485, 47.6702614]}, "properties": {"name": "Sand Point Way NE & NE Windermere Rd"}}, {"type": "Feature", "geometry": {"type": "Point", "coordinates": [-122.31588, 47.6131248]}, "properties": {"name": "E Madison St & 12th Ave"}}, {"type": "Feature", "geometry": {"type": "Point", "coordinates": [-122.266663, 47.6729889]}, "properties": {"name": "Sand Point Way NE & NE 61st St"}}, {"type": "Feature", "geometry": {"type": "Point", "coordinates": [-122.263428, 47.6759758]}, "properties": {"name": "Sand Point Way NE & NE 65th St"}}, {"type": "Feature", "geometry": {"type": "Point", "coordinates": [-122.263519, 47.6797371]}, "properties": {"name": "Sand Point Way NE & NE 70th St"}}, {"type": "Feature", "geometry": {"type": "Point", "coordinates": [-122.263565, 47.6817589]}, "properties": {"name": "Sand Point Way NE & NE 74th St"}}, {"type": "Feature", "geometry": {"type": "Point", "coordinates": [-122.263573, 47.6824036]}, "properties": {"name": "Sand Point Way NE & NE 74th St"}}, {"type": "Feature", "geometry": {"type": "Point", "coordinates": [-122.264465, 47.6850052]}, "properties": {"name": "Sand Point Way NE & NE 77th St"}}, {"type": "Feature", "geometry": {"type": "Point", "coordinates": [-122.257362, 47.6865425]}, "properties": {"name": "NOAA & Building 1"}}, {"type": "Feature", "geometry": {"type": "Point", "coordinates": [-122.260803, 47.6861496]}, "properties": {"name": "NE NOAA Dr"}}, {"type": "Feature", "geometry": {"type": "Point", "coordinates": [-122.259926, 47.6862411]}, "properties": {"name": "NE NOAA Dr & Guard Shack"}}, {"type": "Feature", "geometry": {"type": "Point", "coordinates": [-122.255531, 47.6860123]}, "properties": {"name": "NOAA & Building 3"}}, {"type": "Feature", "geometry": {"type": "Point", "coordinates": [-122.270943, 47.6928253]}, "properties": {"name": "Sand Point Way NE & Inverness Dr NE"}}, {"type": "Feature", "geometry": {"type": "Point", "coordinates": [-122.309723, 47.615696]}, "properties": {"name": "E Madison St & 17th Ave"}}, {"type": "Feature", "geometry": {"type": "Point", "coordinates": [-122.331894, 47.6148834]}, "properties": {"name": "Olive Way & Terry Ave"}}, {"type": "Feature", "geometry": {"type": "Point", "coordinates": [-122.275177, 47.6945229]}, "properties": {"name": "Sand Point Way NE & Matthews Pl NE"}}, {"type": "Feature", "geometry": {"type": "Point", "coordinates": [-122.276566, 47.6961441]}, "properties": {"name": "Sand Point Way NE & NE 93rd St"}}, {"type": "Feature", "geometry": {"type": "Point", "coordinates": [-122.277443, 47.6972351]}, "properties": {"name": "Sand Point Way NE & NE 95th St"}}, {"type": "Feature", "geometry": {"type": "Point", "coordinates": [-122.277634, 47.6990929]}, "properties": {"name": "Sand Point Way NE & NE 97th St"}}, {"type": "Feature", "geometry": {"type": "Point", "coordinates": [-122.277565, 47.7030869]}, "properties": {"name": "Sand Point Way NE & NE 103rd St"}}, {"type": "Feature", "geometry": {"type": "Point", "coordinates": [-122.278374, 47.7053642]}, "properties": {"name": "Sand Point Way NE & NE 106th St"}}, {"type": "Feature", "geometry": {"type": "Point", "coordinates": [-122.280212, 47.7092285]}, "properties": {"name": "Sand Point Way NE & NE 110th St"}}, {"type": "Feature", "geometry": {"type": "Point", "coordinates": [-122.30394, 47.6181297]}, "properties": {"name": "E Madison St & 22nd Ave E"}}, {"type": "Feature", "geometry": {"type": "Point", "coordinates": [-122.281837, 47.7126198]}, "properties": {"name": "Sand Point Way NE & NE 115th St"}}, {"type": "Feature", "geometry": {"type": "Point", "coordinates": [-122.283005, 47.7160149]}, "properties": {"name": "Sand Point Way NE & NE 120th St"}}, {"type": "Feature", "geometry": {"type": "Point", "coordinates": [-122.283928, 47.717598]}, "properties": {"name": "Sand Point Way NE & NE 123rd St"}}, {"type": "Feature", "geometry": {"type": "Point", "coordinates": [-122.28669, 47.7192917]}, "properties": {"name": "NE 125th St & 39th Ave NE"}}, {"type": "Feature", "geometry": {"type": "Point", "coordinates": [-122.332603, 47.6133766]}, "properties": {"name": "Pine St & 9th Ave"}}, {"type": "Feature", "geometry": {"type": "Point", "coordinates": [-122.291412, 47.7193222]}, "properties": {"name": "NE 125th St & 35th Ave NE"}}, {"type": "Feature", "geometry": {"type": "Point", "coordinates": [-122.293205, 47.7193375]}, "properties": {"name": "NE 125th St & 33rd Ave NE"}}, {"type": "Feature", "geometry": {"type": "Point", "coordinates": [-122.300407, 47.6205368]}, "properties": {"name": "E Madison St & 24th Ave E"}}, {"type": "Feature", "geometry": {"type": "Point", "coordinates": [-122.315475, 47.662281]}, "properties": {"name": "12th Ave NE & NE 47th St"}}, {"type": "Feature", "geometry": {"type": "Point", "coordinates": [-122.313477, 47.6612053]}, "properties": {"name": "U District Station - Bay 3"}}, {"type": "Feature", "geometry": {"type": "Point", "coordinates": [-122.312096, 47.6593704]}, "properties": {"name": "15th Ave NE & NE 43rd St"}}, {"type": "Feature", "geometry": {"type": "Point", "coordinates": [-122.312164, 47.6564217]}, "properties": {"name": "15th Ave NE & NE Campus Pkwy"}}, {"type": "Feature", "geometry": {"type": "Point", "coordinates": [-122.321999, 47.6499405]}, "properties": {"name": "Harvard Ave E & Eastlake Ave E"}}, {"type": "Feature", "geometry": {"type": "Point", "coordinates": [-122.322205, 47.6496201]}, "properties": {"name": "Harvard Ave E & Eastlake Ave E"}}, {"type": "Feature", "geometry": {"type": "Point", "coordinates": [-122.31221, 47.6548195]}, "properties": {"name": "15th Ave NE & NE 40th St"}}, {"type": "Feature", "geometry": {"type": "Point", "coordinates": [-122.322205, 47.647007]}, "properties": {"name": "Harvard Ave E & E Shelby St"}}, {"type": "Feature", "geometry": {"type": "Point", "coordinates": [-122.32016, 47.6427994]}, "properties": {"name": "10th Ave E & E Roanoke St"}}, {"type": "Feature", "geometry": {"type": "Point", "coordinates": [-122.32016, 47.6411629]}, "properties": {"name": "10th Ave E & E Miller St"}}, {"type": "Feature", "geometry": {"type": "Point", "coordinates": [-122.320183, 47.6370277]}, "properties": {"name": "10th Ave E & E Newton St"}}, {"type": "Feature", "geometry": {"type": "Point", "coordinates": [-122.320305, 47.6321259]}, "properties": {"name": "10th Ave E & E Galer St"}}, {"type": "Feature", "geometry": {"type": "Point", "coordinates": [-122.32032, 47.6288223]}, "properties": {"name": "10th Ave E & E Prospect St"}}, {"type": "Feature", "geometry": {"type": "Point", "coordinates": [-122.32122, 47.625515]}, "properties": {"name": "Broadway  E & E Roy St"}}, {"type": "Feature", "geometry": {"type": "Point", "coordinates": [-122.320961, 47.6267662]}, "properties": {"name": "E Aloha St & Broadway  E"}}, {"type": "Feature", "geometry": {"type": "Point", "coordinates": [-122.322029, 47.6060677]}, "properties": {"name": "Boren Ave & Jefferson St"}}, {"type": "Feature", "geometry": {"type": "Point", "coordinates": [-122.320702, 47.625267]}, "properties": {"name": "E Roy St & Broadway  E"}}, {"type": "Feature", "geometry": {"type": "Point", "coordinates": [-122.324188, 47.608429]}, "properties": {"name": "Boren Ave & Marion St"}}, {"type": "Feature", "geometry": {"type": "Point", "coordinates": [-122.325294, 47.6096344]}, "properties": {"name": "Boren Ave & Madison St"}}, {"type": "Feature", "geometry": {"type": "Point", "coordinates": [-122.321014, 47.6228943]}, "properties": {"name": "Broadway  E & E Republican St"}}, {"type": "Feature", "geometry": {"type": "Point", "coordinates": [-122.320992, 47.6208153]}, "properties": {"name": "Broadway  E & E Thomas St"}}, {"type": "Feature", "geometry": {"type": "Point", "coordinates": [-122.320946, 47.6185379]}, "properties": {"name": "Broadway & E Denny Way - Bay 4"}}, {"type": "Feature", "geometry": {"type": "Point", "coordinates": [-122.320923, 47.6161919]}, "properties": {"name": "Broadway & E Pine St"}}, {"type": "Feature", "geometry": {"type": "Point", "coordinates": [-122.32621, 47.6103745]}, "properties": {"name": "Boren Ave & Seneca St"}}, {"type": "Feature", "geometry": {"type": "Point", "coordinates": [-122.321495, 47.615303]}, "properties": {"name": "E Pine St & Broadway"}}, {"type": "Feature", "geometry": {"type": "Point", "coordinates": [-122.324913, 47.6089554]}, "properties": {"name": "Boren Ave & Madison St"}}, {"type": "Feature", "geometry": {"type": "Point", "coordinates": [-122.323669, 47.6075935]}, "properties": {"name": "Boren Ave & Columbia St"}}, {"type": "Feature", "geometry": {"type": "Point", "coordinates": [-122.325127, 47.6152878]}, "properties": {"name": "E Pine St & Belmont Ave"}}, {"type": "Feature", "geometry": {"type": "Point", "coordinates": [-122.297264, 47.6226578]}, "properties": {"name": "E Madison St & Martin L King Jr Way E"}}, {"type": "Feature", "geometry": {"type": "Point", "coordinates": [-122.336456, 47.6117668]}, "properties": {"name": "Pine St & 5th Ave"}}, {"type": "Feature", "geometry": {"type": "Point", "coordinates": [-122.327271, 47.6152992]}, "properties": {"name": "E Pine St & Bellevue Ave"}}, {"type": "Feature", "geometry": {"type": "Point", "coordinates": [-122.33136, 47.6123695]}, "properties": {"name": "Pike St & Convention Pl"}}, {"type": "Feature", "geometry": {"type": "Point", "coordinates": [-122.327957, 47.6137848]}, "properties": {"name": "Pike St & Minor Ave"}}, {"type": "Feature", "geometry": {"type": "Point", "coordinates": [-122.324638, 47.6151581]}, "properties": {"name": "E Pine St & Summit Ave"}}, {"type": "Feature", "geometry": {"type": "Point", "coordinates": [-122.321617, 47.6151619]}, "properties": {"name": "E Pine St & Harvard Ave"}}, {"type": "Feature", "geometry": {"type": "Point", "coordinates": [-122.320946, 47.6180534]}, "properties": {"name": "Broadway And Denny"}}, {"type": "Feature", "geometry": {"type": "Point", "coordinates": [-122.32077, 47.6197739]}, "properties": {"name": "Broadway  E & E John St - Bay 3"}}, {"type": "Feature", "geometry": {"type": "Point", "coordinates": [-122.320816, 47.6221962]}, "properties": {"name": "Broadway  E & E Harrison St"}}, {"type": "Feature", "geometry": {"type": "Point", "coordinates": [-122.319992, 47.623951]}, "properties": {"name": "10th Ave E & E Mercer St"}}, {"type": "Feature", "geometry": {"type": "Point", "coordinates": [-122.338028, 47.6111031]}, "properties": {"name": "Pine St & 4th Ave"}}, {"type": "Feature", "geometry": {"type": "Point", "coordinates": [-122.320839, 47.6246109]}, "properties": {"name": "Broadway  E & E Mercer St"}}, {"type": "Feature", "geometry": {"type": "Point", "coordinates": [-122.320114, 47.6288605]}, "properties": {"name": "10th Ave E & E Prospect St"}}, {"type": "Feature", "geometry": {"type": "Point", "coordinates": [-122.320099, 47.6322136]}, "properties": {"name": "10th Ave E & E Galer St"}}, {"type": "Feature", "geometry": {"type": "Point", "coordinates": [-122.319992, 47.6362305]}, "properties": {"name": "10th Ave E & E Howe St"}}, {"type": "Feature", "geometry": {"type": "Point", "coordinates": [-122.319969, 47.6410675]}, "properties": {"name": "10th Ave E & E Miller St"}}, {"type": "Feature", "geometry": {"type": "Point", "coordinates": [-122.320747, 47.643261]}, "properties": {"name": "E Roanoke St & Broadway  E"}}, {"type": "Feature", "geometry": {"type": "Point", "coordinates": [-122.321999, 47.647171]}, "properties": {"name": "Harvard Ave E & E Shelby St"}}, {"type": "Feature", "geometry": {"type": "Point", "coordinates": [-122.311905, 47.6586685]}, "properties": {"name": "15th Ave NE & NE 42nd St"}}, {"type": "Feature", "geometry": {"type": "Point", "coordinates": [-122.31012, 47.6613274]}, "properties": {"name": "NE 45th St & 17th Ave NE"}}, {"type": "Feature", "geometry": {"type": "Point", "coordinates": [-122.306923, 47.6613274]}, "properties": {"name": "NE 45th St & 20th Ave NE"}}, {"type": "Feature", "geometry": {"type": "Point", "coordinates": [-122.313614, 47.6613388]}, "properties": {"name": "U District Station - Bay 2"}}, {"type": "Feature", "geometry": {"type": "Point", "coordinates": [-122.312607, 47.6324997]}, "properties": {"name": "15th Ave E & E Galer St"}}, {"type": "Feature", "geometry": {"type": "Point", "coordinates": [-122.312668, 47.628479]}, "properties": {"name": "15th Ave E & E Prospect St"}}, {"type": "Feature", "geometry": {"type": "Point", "coordinates": [-122.312668, 47.6266823]}, "properties": {"name": "15th Ave E & E Aloha St"}}, {"type": "Feature", "geometry": {"type": "Point", "coordinates": [-122.312698, 47.6250267]}, "properties": {"name": "15th Ave E & E Roy St"}}, {"type": "Feature", "geometry": {"type": "Point", "coordinates": [-122.312737, 47.6228943]}, "properties": {"name": "15th Ave E & E Republican St"}}, {"type": "Feature", "geometry": {"type": "Point", "coordinates": [-122.313255, 47.6153564]}, "properties": {"name": "E Pine St & 15th Ave"}}, {"type": "Feature", "geometry": {"type": "Point", "coordinates": [-122.31591, 47.615345]}, "properties": {"name": "E Pine St & 13th Ave"}}, {"type": "Feature", "geometry": {"type": "Point", "coordinates": [-122.316483, 47.6152]}, "properties": {"name": "E Pine St & 12th Ave"}}, {"type": "Feature", "geometry": {"type": "Point", "coordinates": [-122.311852, 47.6152115]}, "properties": {"name": "E Pine St & 15th Ave"}}, {"type": "Feature", "geometry": {"type": "Point", "coordinates": [-122.312607, 47.6207733]}, "properties": {"name": "15th Ave E & E Thomas St"}}, {"type": "Feature", "geometry": {"type": "Point", "coordinates": [-122.312805, 47.6206436]}, "properties": {"name": "15th Ave E & E Thomas St"}}, {"type": "Feature", "geometry": {"type": "Point", "coordinates": [-122.312645, 47.6187935]}, "properties": {"name": "15th Ave E & E Denny Way"}}, {"type": "Feature", "geometry": {"type": "Point", "coordinates": [-122.312851, 47.6183014]}, "properties": {"name": "15th Ave & E Denny Way"}}, {"type": "Feature", "geometry": {"type": "Point", "coordinates": [-122.312668, 47.6156998]}, "properties": {"name": "15th Ave & E Pine St"}}, {"type": "Feature", "geometry": {"type": "Point", "coordinates": [-122.312538, 47.622963]}, "properties": {"name": "15th Ave E & E Republican St"}}, {"type": "Feature", "geometry": {"type": "Point", "coordinates": [-122.312492, 47.6254234]}, "properties": {"name": "15th Ave E & E Roy St"}}, {"type": "Feature", "geometry": {"type": "Point", "coordinates": [-122.312469, 47.6270981]}, "properties": {"name": "15th Ave E & E Aloha St"}}, {"type": "Feature", "geometry": {"type": "Point", "coordinates": [-122.312454, 47.6289024]}, "properties": {"name": "15th Ave E & E Prospect St"}}, {"type": "Feature", "geometry": {"type": "Point", "coordinates": [-122.312424, 47.6308327]}, "properties": {"name": "15th Ave E & E Highland Dr"}}, {"type": "Feature", "geometry": {"type": "Point", "coordinates": [-122.311821, 47.6325226]}, "properties": {"name": "Grandview Pl E & E Galer St"}}, {"type": "Feature", "geometry": {"type": "Point", "coordinates": [-122.311798, 47.634079]}, "properties": {"name": "Grandview Pl E & E Garfield St"}}, {"type": "Feature", "geometry": {"type": "Point", "coordinates": [-122.284843, 47.5756569]}, "properties": {"name": "Mount Rainier Dr S & S Hanford St"}}, {"type": "Feature", "geometry": {"type": "Point", "coordinates": [-122.28624, 47.5765381]}, "properties": {"name": "Mount Rainier Dr S & S Ridgeway Pl"}}, {"type": "Feature", "geometry": {"type": "Point", "coordinates": [-122.288605, 47.5784073]}, "properties": {"name": "S Mcclellan St & Lake Park Dr S"}}, {"type": "Feature", "geometry": {"type": "Point", "coordinates": [-122.292671, 47.5784111]}, "properties": {"name": "S Mcclellan St & 31st Ave S"}}, {"type": "Feature", "geometry": {"type": "Point", "coordinates": [-122.292908, 47.5798607]}, "properties": {"name": "31st Ave S & S Lander St"}}, {"type": "Feature", "geometry": {"type": "Point", "coordinates": [-122.292892, 47.5827065]}, "properties": {"name": "31st Ave S & S College St"}}, {"type": "Feature", "geometry": {"type": "Point", "coordinates": [-122.292908, 47.5850983]}, "properties": {"name": "31st Ave S & S Plum St"}}, {"type": "Feature", "geometry": {"type": "Point", "coordinates": [-122.292442, 47.5881615]}, "properties": {"name": "31st Ave S & S Massachusetts St"}}, {"type": "Feature", "geometry": {"type": "Point", "coordinates": [-122.336838, 47.6100731]}, "properties": {"name": "Pike St & 4th Ave"}}, {"type": "Feature", "geometry": {"type": "Point", "coordinates": [-122.292305, 47.5905914]}, "properties": {"name": "31st Ave S & S Day St"}}, {"type": "Feature", "geometry": {"type": "Point", "coordinates": [-122.292656, 47.5935059]}, "properties": {"name": "31st Ave S & S Norman St"}}, {"type": "Feature", "geometry": {"type": "Point", "coordinates": [-122.292603, 47.5959206]}, "properties": {"name": "31st Ave S & S Dearborn St"}}, {"type": "Feature", "geometry": {"type": "Point", "coordinates": [-122.292519, 47.597908]}, "properties": {"name": "31st Ave S & S King St"}}, {"type": "Feature", "geometry": {"type": "Point", "coordinates": [-122.29364, 47.5992508]}, "properties": {"name": "S Jackson St & 30th Ave S"}}, {"type": "Feature", "geometry": {"type": "Point", "coordinates": [-122.296005, 47.5992813]}, "properties": {"name": "S Jackson St & 28th Ave S"}}, {"type": "Feature", "geometry": {"type": "Point", "coordinates": [-122.297752, 47.5993042]}, "properties": {"name": "S Jackson St & Martin L King Jr Way S"}}, {"type": "Feature", "geometry": {"type": "Point", "coordinates": [-122.334526, 47.6110344]}, "properties": {"name": "Pike St & 6th Ave"}}, {"type": "Feature", "geometry": {"type": "Point", "coordinates": [-122.301811, 47.5993462]}, "properties": {"name": "S Jackson St & 23rd Ave S"}}, {"type": "Feature", "geometry": {"type": "Point", "coordinates": [-122.304642, 47.5993347]}, "properties": {"name": "S Jackson St & 20th Pl S"}}, {"type": "Feature", "geometry": {"type": "Point", "coordinates": [-122.309349, 47.5993042]}, "properties": {"name": "S Jackson St & 18th Ave S"}}, {"type": "Feature", "geometry": {"type": "Point", "coordinates": [-122.332687, 47.6118088]}, "properties": {"name": "Pike St & 7th Ave"}}, {"type": "Feature", "geometry": {"type": "Point", "coordinates": [-122.313354, 47.5991478]}, "properties": {"name": "S Jackson St & Rainier Ave S"}}, {"type": "Feature", "geometry": {"type": "Point", "coordinates": [-122.309738, 47.5991669]}, "properties": {"name": "S Jackson St & 18th Ave S"}}, {"type": "Feature", "geometry": {"type": "Point", "coordinates": [-122.305893, 47.5991898]}, "properties": {"name": "S Jackson St & 20th Ave S"}}, {"type": "Feature", "geometry": {"type": "Point", "coordinates": [-122.296906, 47.6230965]}, "properties": {"name": "E Madison St & Martin L King Jr Way E"}}, {"type": "Feature", "geometry": {"type": "Point", "coordinates": [-122.30143, 47.5992203]}, "properties": {"name": "S Jackson St & 23rd Ave S"}}, {"type": "Feature", "geometry": {"type": "Point", "coordinates": [-122.295952, 47.5991478]}, "properties": {"name": "S Jackson St & 28th Ave S"}}, {"type": "Feature", "geometry": {"type": "Point", "coordinates": [-122.29393, 47.5991173]}, "properties": {"name": "S Jackson St & 30th Ave S"}}, {"type": "Feature", "geometry": {"type": "Point", "coordinates": [-122.29274, 47.597744]}, "properties": {"name": "31st Ave S & S King St"}}, {"type": "Feature", "geometry": {"type": "Point", "coordinates": [-122.292809, 47.5955124]}, "properties": {"name": "31st Ave S & S Dearborn St"}}, {"type": "Feature", "geometry": {"type": "Point", "coordinates": [-122.292877, 47.5930748]}, "properties": {"name": "31st Ave S & S Norman St"}}, {"type": "Feature", "geometry": {"type": "Point", "coordinates": [-122.292496, 47.5909729]}, "properties": {"name": "31st Ave S & S Irving St"}}, {"type": "Feature", "geometry": {"type": "Point", "coordinates": [-122.302483, 47.6193161]}, "properties": {"name": "E Madison St & 23rd Ave E"}}, {"type": "Feature", "geometry": {"type": "Point", "coordinates": [-122.292648, 47.5878716]}, "properties": {"name": "31st Ave S & S Massachusetts St"}}, {"type": "Feature", "geometry": {"type": "Point", "coordinates": [-122.293098, 47.5849571]}, "properties": {"name": "31st Ave S & S Plum St"}}, {"type": "Feature", "geometry": {"type": "Point", "coordinates": [-122.293106, 47.5834236]}, "properties": {"name": "31st Ave S & S Walker St"}}, {"type": "Feature", "geometry": {"type": "Point", "coordinates": [-122.334511, 47.6098289]}, "properties": {"name": "Union St & 5th Ave"}}, {"type": "Feature", "geometry": {"type": "Point", "coordinates": [-122.293098, 47.579422]}, "properties": {"name": "31st Ave S & S Lander St"}}, {"type": "Feature", "geometry": {"type": "Point", "coordinates": [-122.292496, 47.5782776]}, "properties": {"name": "S Mcclellan St & 31st Ave S"}}, {"type": "Feature", "geometry": {"type": "Point", "coordinates": [-122.288712, 47.5782738]}, "properties": {"name": "S Mcclellan St & S Mount Baker Blvd"}}, {"type": "Feature", "geometry": {"type": "Point", "coordinates": [-122.304665, 47.6179543]}, "properties": {"name": "E Madison St & 22nd Ave E"}}, {"type": "Feature", "geometry": {"type": "Point", "coordinates": [-122.286827, 47.5767555]}, "properties": {"name": "Mount Rainier Dr S & 37th Pl S"}}, {"type": "Feature", "geometry": {"type": "Point", "coordinates": [-122.278122, 47.6407738]}, "properties": {"name": "E Mcgilvra St & 42nd Ave E"}}, {"type": "Feature", "geometry": {"type": "Point", "coordinates": [-122.278534, 47.6388626]}, "properties": {"name": "42nd Ave E & E Lynn St"}}, {"type": "Feature", "geometry": {"type": "Point", "coordinates": [-122.278564, 47.6367264]}, "properties": {"name": "42nd Ave E & E Newton St"}}, {"type": "Feature", "geometry": {"type": "Point", "coordinates": [-122.278572, 47.6356049]}, "properties": {"name": "42nd Ave E & E Madison St"}}, {"type": "Feature", "geometry": {"type": "Point", "coordinates": [-122.279778, 47.6347008]}, "properties": {"name": "E Madison St & 41st Ave E"}}, {"type": "Feature", "geometry": {"type": "Point", "coordinates": [-122.281433, 47.6335716]}, "properties": {"name": "E Madison St & E Garfield St"}}, {"type": "Feature", "geometry": {"type": "Point", "coordinates": [-122.283836, 47.6319466]}, "properties": {"name": "E Madison St & 38th Ave E"}}, {"type": "Feature", "geometry": {"type": "Point", "coordinates": [-122.286324, 47.6302643]}, "properties": {"name": "E Madison St & 36th Ave E"}}, {"type": "Feature", "geometry": {"type": "Point", "coordinates": [-122.288345, 47.6289024]}, "properties": {"name": "E Madison St & 34th Ave E"}}, {"type": "Feature", "geometry": {"type": "Point", "coordinates": [-122.310516, 47.6155205]}, "properties": {"name": "E Madison St & 17th Ave"}}, {"type": "Feature", "geometry": {"type": "Point", "coordinates": [-122.336288, 47.6090813]}, "properties": {"name": "Union St & 4th Ave"}}, {"type": "Feature", "geometry": {"type": "Point", "coordinates": [-122.292725, 47.6259193]}, "properties": {"name": "E Madison St & Lake Washington Blvd"}}, {"type": "Feature", "geometry": {"type": "Point", "coordinates": [-122.300186, 47.6208687]}, "properties": {"name": "E Madison St & 25th Ave E"}}, {"type": "Feature", "geometry": {"type": "Point", "coordinates": [-122.308052, 47.6165466]}, "properties": {"name": "E Madison St & 19th Ave"}}, {"type": "Feature", "geometry": {"type": "Point", "coordinates": [-122.308426, 47.61623]}, "properties": {"name": "E Madison St & 18th Ave"}}, {"type": "Feature", "geometry": {"type": "Point", "coordinates": [-122.295189, 47.6240654]}, "properties": {"name": "E Madison St & 29th Ave E"}}, {"type": "Feature", "geometry": {"type": "Point", "coordinates": [-122.316254, 47.6131287]}, "properties": {"name": "E Madison St & 12th Ave"}}, {"type": "Feature", "geometry": {"type": "Point", "coordinates": [-122.292099, 47.626152]}, "properties": {"name": "E Madison St & Lake Washington Blvd"}}, {"type": "Feature", "geometry": {"type": "Point", "coordinates": [-122.289093, 47.6281853]}, "properties": {"name": "E Madison St & 33rd Ave E"}}, {"type": "Feature", "geometry": {"type": "Point", "coordinates": [-122.286514, 47.62994]}, "properties": {"name": "E Madison St & 36th Ave E"}}, {"type": "Feature", "geometry": {"type": "Point", "coordinates": [-122.284302, 47.631443]}, "properties": {"name": "E Madison St & 38th Ave E"}}, {"type": "Feature", "geometry": {"type": "Point", "coordinates": [-122.282822, 47.6324272]}, "properties": {"name": "E Madison St & 39th Ave E"}}, {"type": "Feature", "geometry": {"type": "Point", "coordinates": [-122.280022, 47.6343307]}, "properties": {"name": "E Madison St & 41st Ave E"}}, {"type": "Feature", "geometry": {"type": "Point", "coordinates": [-122.277046, 47.6348839]}, "properties": {"name": "43rd Ave E & E Blaine St"}}, {"type": "Feature", "geometry": {"type": "Point", "coordinates": [-122.277016, 47.636631]}, "properties": {"name": "43rd Ave E & E Madison St"}}, {"type": "Feature", "geometry": {"type": "Point", "coordinates": [-122.29763, 47.5900154]}, "properties": {"name": "Martin L King Jr Way S & S Irving St"}}, {"type": "Feature", "geometry": {"type": "Point", "coordinates": [-122.276993, 47.6390877]}, "properties": {"name": "43rd Ave E & E Lynn St"}}, {"type": "Feature", "geometry": {"type": "Point", "coordinates": [-122.298248, 47.584259]}, "properties": {"name": "Martin L King Jr Way S & S Hill St"}}, {"type": "Feature", "geometry": {"type": "Point", "coordinates": [-122.299629, 47.5837135]}, "properties": {"name": "S Walker St & 25th Ave S"}}, {"type": "Feature", "geometry": {"type": "Point", "coordinates": [-122.296921, 47.5810013]}, "properties": {"name": "Martin L King Jr Way S & S Bayview St"}}, {"type": "Feature", "geometry": {"type": "Point", "coordinates": [-122.298195, 47.5879974]}, "properties": {"name": "Martin L King Jr Way S & S Massachusetts St"}}, {"type": "Feature", "geometry": {"type": "Point", "coordinates": [-122.298805, 47.5883865]}, "properties": {"name": "S Massachusetts St & 26th Ave S"}}, {"type": "Feature", "geometry": {"type": "Point", "coordinates": [-122.300079, 47.5854111]}, "properties": {"name": "S Plum St & 25th Ave S"}}, {"type": "Feature", "geometry": {"type": "Point", "coordinates": [-122.297821, 47.5887337]}, "properties": {"name": "Martin L King Jr Way S & S Massachusetts St"}}, {"type": "Feature", "geometry": {"type": "Point", "coordinates": [-122.322372, 47.6105804]}, "properties": {"name": "Madison St & Boylston Ave"}}, {"type": "Feature", "geometry": {"type": "Point", "coordinates": [-122.33461, 47.6074219]}, "properties": {"name": "Seneca St & 4th Ave"}}, {"type": "Feature", "geometry": {"type": "Point", "coordinates": [-122.298958, 47.5931625]}, "properties": {"name": "26th Ave S & S Norman St"}}, {"type": "Feature", "geometry": {"type": "Point", "coordinates": [-122.299423, 47.5956268]}, "properties": {"name": "S Dearborn St & 26th Ave S"}}, {"type": "Feature", "geometry": {"type": "Point", "coordinates": [-122.302124, 47.5967102]}, "properties": {"name": "23rd Ave S & S Lane St"}}, {"type": "Feature", "geometry": {"type": "Point", "coordinates": [-122.302124, 47.5996971]}, "properties": {"name": "23rd Ave S & S Jackson St"}}, {"type": "Feature", "geometry": {"type": "Point", "coordinates": [-122.302299, 47.6018944]}, "properties": {"name": "23rd Ave & E Yesler Way"}}, {"type": "Feature", "geometry": {"type": "Point", "coordinates": [-122.325974, 47.6090698]}, "properties": {"name": "Madison St & Terry Ave"}}, {"type": "Feature", "geometry": {"type": "Point", "coordinates": [-122.331482, 47.6087418]}, "properties": {"name": "Seneca St & 6th Ave"}}, {"type": "Feature", "geometry": {"type": "Point", "coordinates": [-122.302887, 47.6058998]}, "properties": {"name": "23rd Ave & E Jefferson St"}}, {"type": "Feature", "geometry": {"type": "Point", "coordinates": [-122.302361, 47.6012573]}, "properties": {"name": "23rd Ave S & E Yesler Way"}}, {"type": "Feature", "geometry": {"type": "Point", "coordinates": [-122.302315, 47.5989761]}, "properties": {"name": "23rd Ave S & S Jackson St"}}, {"type": "Feature", "geometry": {"type": "Point", "coordinates": [-122.301636, 47.5955009]}, "properties": {"name": "S Dearborn St & 24th Ave S"}}, {"type": "Feature", "geometry": {"type": "Point", "coordinates": [-122.301292, 47.5927429]}, "properties": {"name": "24th Ave S & S Norman St"}}, {"type": "Feature", "geometry": {"type": "Point", "coordinates": [-122.289421, 47.6125031]}, "properties": {"name": "34th Ave & E Union St"}}, {"type": "Feature", "geometry": {"type": "Point", "coordinates": [-122.328857, 47.6078682]}, "properties": {"name": "Madison St & 8th Ave"}}, {"type": "Feature", "geometry": {"type": "Point", "coordinates": [-122.289474, 47.6105156]}, "properties": {"name": "34th Ave & E Marion St"}}, {"type": "Feature", "geometry": {"type": "Point", "coordinates": [-122.28952, 47.6081123]}, "properties": {"name": "34th Ave & E Cherry St"}}, {"type": "Feature", "geometry": {"type": "Point", "coordinates": [-122.292, 47.6080322]}, "properties": {"name": "E Cherry St & 32nd Ave"}}, {"type": "Feature", "geometry": {"type": "Point", "coordinates": [-122.296158, 47.6080627]}, "properties": {"name": "E Cherry St & Martin L King Jr Way"}}, {"type": "Feature", "geometry": {"type": "Point", "coordinates": [-122.300499, 47.6080704]}, "properties": {"name": "E Cherry St & 24th Ave"}}, {"type": "Feature", "geometry": {"type": "Point", "coordinates": [-122.302879, 47.6077118]}, "properties": {"name": "23rd Ave & E Cherry St"}}, {"type": "Feature", "geometry": {"type": "Point", "coordinates": [-122.303215, 47.6062393]}, "properties": {"name": "E Jefferson St & 23rd Ave"}}, {"type": "Feature", "geometry": {"type": "Point", "coordinates": [-122.305351, 47.6062355]}, "properties": {"name": "E Jefferson St & 21st Ave"}}, {"type": "Feature", "geometry": {"type": "Point", "coordinates": [-122.331566, 47.6067352]}, "properties": {"name": "Madison St & 5th Ave"}}, {"type": "Feature", "geometry": {"type": "Point", "coordinates": [-122.309669, 47.6062508]}, "properties": {"name": "E Jefferson St & 18th Ave"}}, {"type": "Feature", "geometry": {"type": "Point", "coordinates": [-122.313126, 47.606266]}, "properties": {"name": "E Jefferson St & 15th Ave"}}, {"type": "Feature", "geometry": {"type": "Point", "coordinates": [-122.317108, 47.606266]}, "properties": {"name": "E Jefferson St & 12th Ave"}}, {"type": "Feature", "geometry": {"type": "Point", "coordinates": [-122.316879, 47.6045799]}, "properties": {"name": "12th Ave & E Alder St"}}, {"type": "Feature", "geometry": {"type": "Point", "coordinates": [-122.316689, 47.6050415]}, "properties": {"name": "12th Ave & E Terrace St"}}, {"type": "Feature", "geometry": {"type": "Point", "coordinates": [-122.321167, 47.6061554]}, "properties": {"name": "Jefferson St & Broadway"}}, {"type": "Feature", "geometry": {"type": "Point", "coordinates": [-122.323914, 47.6050072]}, "properties": {"name": "Jefferson St & 9th Ave"}}, {"type": "Feature", "geometry": {"type": "Point", "coordinates": [-122.325813, 47.6051865]}, "properties": {"name": "James St & 8th Ave"}}, {"type": "Feature", "geometry": {"type": "Point", "coordinates": [-122.334419, 47.6055412]}, "properties": {"name": "Madison St & 3rd Ave"}}, {"type": "Feature", "geometry": {"type": "Point", "coordinates": [-122.3255, 47.6051636]}, "properties": {"name": "James St & 8th Ave"}}, {"type": "Feature", "geometry": {"type": "Point", "coordinates": [-122.324242, 47.6048737]}, "properties": {"name": "9th Ave & Jefferson St"}}, {"type": "Feature", "geometry": {"type": "Point", "coordinates": [-122.320229, 47.606144]}, "properties": {"name": "E Jefferson St & Broadway"}}, {"type": "Feature", "geometry": {"type": "Point", "coordinates": [-122.316376, 47.6061249]}, "properties": {"name": "E Jefferson St & 12th Ave"}}, {"type": "Feature", "geometry": {"type": "Point", "coordinates": [-122.31356, 47.6061249]}, "properties": {"name": "E Jefferson St & 14th Ave"}}, {"type": "Feature", "geometry": {"type": "Point", "coordinates": [-122.309929, 47.6061096]}, "properties": {"name": "E Jefferson St & 17th Ave"}}, {"type": "Feature", "geometry": {"type": "Point", "coordinates": [-122.305962, 47.6060982]}, "properties": {"name": "E Jefferson St & 20th Ave"}}, {"type": "Feature", "geometry": {"type": "Point", "coordinates": [-122.304924, 47.607399]}, "properties": {"name": "21st Ave & E James St"}}, {"type": "Feature", "geometry": {"type": "Point", "coordinates": [-122.30233, 47.6079369]}, "properties": {"name": "E Cherry St & 23rd Ave"}}, {"type": "Feature", "geometry": {"type": "Point", "coordinates": [-122.299774, 47.6079369]}, "properties": {"name": "E Cherry St & 25th Ave"}}, {"type": "Feature", "geometry": {"type": "Point", "coordinates": [-122.296364, 47.6079292]}, "properties": {"name": "E Cherry St & Martin L King Jr Way"}}, {"type": "Feature", "geometry": {"type": "Point", "coordinates": [-122.292305, 47.6079063]}, "properties": {"name": "E Cherry St & 31st Ave"}}, {"type": "Feature", "geometry": {"type": "Point", "coordinates": [-122.290253, 47.6078835]}, "properties": {"name": "E Cherry St & 33rd Ave"}}, {"type": "Feature", "geometry": {"type": "Point", "coordinates": [-122.289299, 47.6094742]}, "properties": {"name": "34th Ave & E Columbia St"}}, {"type": "Feature", "geometry": {"type": "Point", "coordinates": [-122.29023, 47.6117134]}, "properties": {"name": "E Spring St & 34th Ave"}}, {"type": "Feature", "geometry": {"type": "Point", "coordinates": [-122.307373, 47.6325073]}, "properties": {"name": "Interlaken Turnback Loop & 19th Ave E"}}, {"type": "Feature", "geometry": {"type": "Point", "coordinates": [-122.307327, 47.631897]}, "properties": {"name": "19th Ave E & E Galer St"}}, {"type": "Feature", "geometry": {"type": "Point", "coordinates": [-122.307358, 47.6304359]}, "properties": {"name": "19th Ave E & E Highland Dr"}}, {"type": "Feature", "geometry": {"type": "Point", "coordinates": [-122.307373, 47.6284943]}, "properties": {"name": "19th Ave E & E Prospect St"}}, {"type": "Feature", "geometry": {"type": "Point", "coordinates": [-122.307411, 47.6266518]}, "properties": {"name": "19th Ave E & E Aloha St"}}, {"type": "Feature", "geometry": {"type": "Point", "coordinates": [-122.307396, 47.6241951]}, "properties": {"name": "19th Ave E & E Mercer St"}}, {"type": "Feature", "geometry": {"type": "Point", "coordinates": [-122.307426, 47.6219025]}, "properties": {"name": "19th Ave E & E Harrison St"}}, {"type": "Feature", "geometry": {"type": "Point", "coordinates": [-122.307465, 47.6194572]}, "properties": {"name": "19th Ave E & E John St"}}, {"type": "Feature", "geometry": {"type": "Point", "coordinates": [-122.317177, 47.6129875]}, "properties": {"name": "E Union St & 12th Ave"}}, {"type": "Feature", "geometry": {"type": "Point", "coordinates": [-122.321686, 47.6108665]}, "properties": {"name": "Madison St & Boylston Ave"}}, {"type": "Feature", "geometry": {"type": "Point", "coordinates": [-122.324638, 47.6096268]}, "properties": {"name": "Madison St & Boren Ave"}}, {"type": "Feature", "geometry": {"type": "Point", "coordinates": [-122.307495, 47.6182632]}, "properties": {"name": "19th Ave & E Denny Way"}}, {"type": "Feature", "geometry": {"type": "Point", "coordinates": [-122.324745, 47.6094246]}, "properties": {"name": "Madison St & Boren Ave"}}, {"type": "Feature", "geometry": {"type": "Point", "coordinates": [-122.307274, 47.6186981]}, "properties": {"name": "19th Ave E & E Denny Way"}}, {"type": "Feature", "geometry": {"type": "Point", "coordinates": [-122.307259, 47.619873]}, "properties": {"name": "19th Ave E & E John St"}}, {"type": "Feature", "geometry": {"type": "Point", "coordinates": [-122.307251, 47.6206818]}, "properties": {"name": "19th Ave E & E Thomas St"}}, {"type": "Feature", "geometry": {"type": "Point", "coordinates": [-122.307236, 47.6218605]}, "properties": {"name": "19th Ave E & E Harrison St"}}, {"type": "Feature", "geometry": {"type": "Point", "coordinates": [-122.307205, 47.6234016]}, "properties": {"name": "19th Ave E & E Republican St"}}, {"type": "Feature", "geometry": {"type": "Point", "coordinates": [-122.30722, 47.6254692]}, "properties": {"name": "19th Ave E & E Roy St"}}, {"type": "Feature", "geometry": {"type": "Point", "coordinates": [-122.30719, 47.6270447]}, "properties": {"name": "19th Ave E & E Aloha St"}}, {"type": "Feature", "geometry": {"type": "Point", "coordinates": [-122.307167, 47.6288605]}, "properties": {"name": "19th Ave E & E Prospect St"}}, {"type": "Feature", "geometry": {"type": "Point", "coordinates": [-122.307152, 47.630806]}, "properties": {"name": "19th Ave E & E Highland Dr"}}, {"type": "Feature", "geometry": {"type": "Point", "coordinates": [-122.326691, 47.6262894]}, "properties": {"name": "Bellevue Ave E & Bellevue Pl E"}}, {"type": "Feature", "geometry": {"type": "Point", "coordinates": [-122.329582, 47.6016464]}, "properties": {"name": "Yesler Way & Prefontaine Pl S"}}, {"type": "Feature", "geometry": {"type": "Point", "coordinates": [-122.326698, 47.623188]}, "properties": {"name": "Bellevue Ave E & E Republican St"}}, {"type": "Feature", "geometry": {"type": "Point", "coordinates": [-122.326691, 47.6206512]}, "properties": {"name": "Bellevue Ave E & E Thomas St"}}, {"type": "Feature", "geometry": {"type": "Point", "coordinates": [-122.32682, 47.6186447]}, "properties": {"name": "Bellevue Ave E & E Denny Way"}}, {"type": "Feature", "geometry": {"type": "Point", "coordinates": [-122.326889, 47.6167336]}, "properties": {"name": "Bellevue Ave & E Olive Way"}}, {"type": "Feature", "geometry": {"type": "Point", "coordinates": [-122.326691, 47.6165085]}, "properties": {"name": "Bellevue Ave & E Olive St"}}, {"type": "Feature", "geometry": {"type": "Point", "coordinates": [-122.325195, 47.6193848]}, "properties": {"name": "Summit Ave E & E Olive Way"}}, {"type": "Feature", "geometry": {"type": "Point", "coordinates": [-122.32505, 47.6016388]}, "properties": {"name": "Yesler Way & 6th Ave S"}}, {"type": "Feature", "geometry": {"type": "Point", "coordinates": [-122.325211, 47.6222191]}, "properties": {"name": "Summit Ave E & E Harrison St"}}, {"type": "Feature", "geometry": {"type": "Point", "coordinates": [-122.325226, 47.6245689]}, "properties": {"name": "Summit Ave E & E Mercer St"}}, {"type": "Feature", "geometry": {"type": "Point", "coordinates": [-122.37674, 47.6930084]}, "properties": {"name": "15th Ave NW & NW 87th St"}}, {"type": "Feature", "geometry": {"type": "Point", "coordinates": [-122.327141, 47.6017799]}, "properties": {"name": "Yesler Way & 5th Ave"}}, {"type": "Feature", "geometry": {"type": "Point", "coordinates": [-122.376915, 47.6901588]}, "properties": {"name": "15th Ave NW & NW 85th St"}}, {"type": "Feature", "geometry": {"type": "Point", "coordinates": [-122.3769, 47.6862793]}, "properties": {"name": "15th Ave NW & NW 80th St"}}, {"type": "Feature", "geometry": {"type": "Point", "coordinates": [-122.376892, 47.682991]}, "properties": {"name": "15th Ave NW & NW 75th St"}}, {"type": "Feature", "geometry": {"type": "Point", "coordinates": [-122.376877, 47.6788483]}, "properties": {"name": "15th Ave NW & NW 70th St"}}, {"type": "Feature", "geometry": {"type": "Point", "coordinates": [-122.376686, 47.6760826]}, "properties": {"name": "15th Ave NW & NW 65th St"}}, {"type": "Feature", "geometry": {"type": "Point", "coordinates": [-122.329803, 47.6017799]}, "properties": {"name": "Yesler Way & 3rd Ave"}}, {"type": "Feature", "geometry": {"type": "Point", "coordinates": [-122.376312, 47.6724358]}, "properties": {"name": "15th Ave NW & NW 60th St"}}, {"type": "Feature", "geometry": {"type": "Point", "coordinates": [-122.376312, 47.6689072]}, "properties": {"name": "15th Ave NW & NW Market St"}}, {"type": "Feature", "geometry": {"type": "Point", "coordinates": [-122.37648, 47.6631432]}, "properties": {"name": "15th Ave NW & NW Leary Way"}}, {"type": "Feature", "geometry": {"type": "Point", "coordinates": [-122.376328, 47.6534042]}, "properties": {"name": "15th Ave W & W Emerson St"}}, {"type": "Feature", "geometry": {"type": "Point", "coordinates": [-122.38372, 47.6558075]}, "properties": {"name": "W Emerson Pl & 21st Ave W"}}, {"type": "Feature", "geometry": {"type": "Point", "coordinates": [-122.376877, 47.6480637]}, "properties": {"name": "15th Ave W & W Dravus St"}}, {"type": "Feature", "geometry": {"type": "Point", "coordinates": [-122.376328, 47.644825]}, "properties": {"name": "15th Ave W & W Armour St"}}, {"type": "Feature", "geometry": {"type": "Point", "coordinates": [-122.376312, 47.6401825]}, "properties": {"name": "15th Ave W & W Wheeler St"}}, {"type": "Feature", "geometry": {"type": "Point", "coordinates": [-122.376305, 47.6372871]}, "properties": {"name": "15th Ave W & W Armory Way"}}, {"type": "Feature", "geometry": {"type": "Point", "coordinates": [-122.375305, 47.6318817]}, "properties": {"name": "Elliott Ave W & W Galer St"}}, {"type": "Feature", "geometry": {"type": "Point", "coordinates": [-122.371849, 47.6291351]}, "properties": {"name": "Elliott Ave W & W Prospect St"}}, {"type": "Feature", "geometry": {"type": "Point", "coordinates": [-122.360809, 47.6245308]}, "properties": {"name": "W Mercer St & 3rd Ave W"}}, {"type": "Feature", "geometry": {"type": "Point", "coordinates": [-122.361153, 47.6246681]}, "properties": {"name": "W Mercer St & 3rd Ave W"}}, {"type": "Feature", "geometry": {"type": "Point", "coordinates": [-122.371414, 47.6290131]}, "properties": {"name": "Elliott Ave W & W Prospect St"}}, {"type": "Feature", "geometry": {"type": "Point", "coordinates": [-122.37529, 47.6320915]}, "properties": {"name": "Elliott Ave W & W Galer St"}}, {"type": "Feature", "geometry": {"type": "Point", "coordinates": [-122.376099, 47.6370888]}, "properties": {"name": "15th Ave W & W Newton St"}}, {"type": "Feature", "geometry": {"type": "Point", "coordinates": [-122.376114, 47.6409225]}, "properties": {"name": "15th Ave W & W Wheeler St"}}, {"type": "Feature", "geometry": {"type": "Point", "coordinates": [-122.376122, 47.6449356]}, "properties": {"name": "15th Ave W & W Armour St"}}, {"type": "Feature", "geometry": {"type": "Point", "coordinates": [-122.376045, 47.6491623]}, "properties": {"name": "15th Ave W & W Dravus St"}}, {"type": "Feature", "geometry": {"type": "Point", "coordinates": [-122.376122, 47.6539421]}, "properties": {"name": "15th Ave W & W Emerson St"}}, {"type": "Feature", "geometry": {"type": "Point", "coordinates": [-122.382843, 47.6552963]}, "properties": {"name": "W Emerson Pl & 21st Ave W"}}, {"type": "Feature", "geometry": {"type": "Point", "coordinates": [-122.375977, 47.6634369]}, "properties": {"name": "15th Ave NW & NW Leary Way"}}, {"type": "Feature", "geometry": {"type": "Point", "coordinates": [-122.376114, 47.6684799]}, "properties": {"name": "15th Ave NW & NW Market St"}}, {"type": "Feature", "geometry": {"type": "Point", "coordinates": [-122.376114, 47.6722946]}, "properties": {"name": "15th Ave NW & NW 60th St"}}, {"type": "Feature", "geometry": {"type": "Point", "coordinates": [-122.376671, 47.6768608]}, "properties": {"name": "15th Ave NW & NW 65th St"}}, {"type": "Feature", "geometry": {"type": "Point", "coordinates": [-122.376671, 47.6798744]}, "properties": {"name": "15th Ave NW & NW 70th St"}}, {"type": "Feature", "geometry": {"type": "Point", "coordinates": [-122.376686, 47.6835098]}, "properties": {"name": "15th Ave NW & NW 75th St"}}, {"type": "Feature", "geometry": {"type": "Point", "coordinates": [-122.376701, 47.68713]}, "properties": {"name": "15th Ave NW & NW 80th St"}}, {"type": "Feature", "geometry": {"type": "Point", "coordinates": [-122.376709, 47.6909561]}, "properties": {"name": "15th Ave NW & NW 85th St"}}, {"type": "Feature", "geometry": {"type": "Point", "coordinates": [-122.332603, 47.5983582]}, "properties": {"name": "S King St & Occidental Ave S"}}, {"type": "Feature", "geometry": {"type": "Point", "coordinates": [-122.333069, 47.5991364]}, "properties": {"name": "S Jackson St & Occidental Ave S"}}, {"type": "Feature", "geometry": {"type": "Point", "coordinates": [-122.328041, 47.5991249]}, "properties": {"name": "S Jackson St & 5th Ave S"}}, {"type": "Feature", "geometry": {"type": "Point", "coordinates": [-122.32457, 47.5991173]}, "properties": {"name": "S Jackson St & Maynard Ave S"}}, {"type": "Feature", "geometry": {"type": "Point", "coordinates": [-122.322044, 47.5991173]}, "properties": {"name": "S Jackson St & 8th Ave S"}}, {"type": "Feature", "geometry": {"type": "Point", "coordinates": [-122.410797, 47.5789948]}, "properties": {"name": "Alki Ave SW & 61st Ave SW"}}, {"type": "Feature", "geometry": {"type": "Point", "coordinates": [-122.410797, 47.5775185]}, "properties": {"name": "61st Ave SW & SW Stevens St"}}, {"type": "Feature", "geometry": {"type": "Point", "coordinates": [-122.410835, 47.5760269]}, "properties": {"name": "61st Ave SW & SW Admiral Way"}}, {"type": "Feature", "geometry": {"type": "Point", "coordinates": [-122.409019, 47.5758171]}, "properties": {"name": "SW Admiral Way & 60th Ave SW"}}, {"type": "Feature", "geometry": {"type": "Point", "coordinates": [-122.407791, 47.5760765]}, "properties": {"name": "SW Admiral Way & 59th Ave SW"}}, {"type": "Feature", "geometry": {"type": "Point", "coordinates": [-122.405182, 47.577034]}, "properties": {"name": "SW Admiral Way & 57th Ave SW"}}, {"type": "Feature", "geometry": {"type": "Point", "coordinates": [-122.322327, 47.5992661]}, "properties": {"name": "S Jackson St & 8th Ave S"}}, {"type": "Feature", "geometry": {"type": "Point", "coordinates": [-122.400917, 47.5785828]}, "properties": {"name": "SW Admiral Way & SW Stevens St"}}, {"type": "Feature", "geometry": {"type": "Point", "coordinates": [-122.396996, 47.5791893]}, "properties": {"name": "SW Admiral Way & 51st Ave SW"}}, {"type": "Feature", "geometry": {"type": "Point", "coordinates": [-122.393799, 47.5795288]}, "properties": {"name": "SW Admiral Way & SW Lander St"}}, {"type": "Feature", "geometry": {"type": "Point", "coordinates": [-122.391571, 47.5811577]}, "properties": {"name": "SW Admiral Way & 47th Ave SW"}}, {"type": "Feature", "geometry": {"type": "Point", "coordinates": [-122.388924, 47.5811424]}, "properties": {"name": "SW Admiral Way & 45th Ave SW"}}, {"type": "Feature", "geometry": {"type": "Point", "coordinates": [-122.386177, 47.5811234]}, "properties": {"name": "SW Admiral Way & California Ave SW"}}, {"type": "Feature", "geometry": {"type": "Point", "coordinates": [-122.38398, 47.5811119]}, "properties": {"name": "SW Admiral Way & 41st Ave SW"}}, {"type": "Feature", "geometry": {"type": "Point", "coordinates": [-122.38092, 47.5810432]}, "properties": {"name": "SW Admiral Way & 39th Ave SW"}}, {"type": "Feature", "geometry": {"type": "Point", "coordinates": [-122.378922, 47.5810242]}, "properties": {"name": "SW Admiral Way & Belvidere Ave SW"}}, {"type": "Feature", "geometry": {"type": "Point", "coordinates": [-122.32547, 47.5992622]}, "properties": {"name": "S Jackson St & Maynard Ave S"}}, {"type": "Feature", "geometry": {"type": "Point", "coordinates": [-122.376793, 47.5802498]}, "properties": {"name": "SW Admiral Way & SW Olga St"}}, {"type": "Feature", "geometry": {"type": "Point", "coordinates": [-122.334091, 47.5952492]}, "properties": {"name": "1st Ave S & S Charles St"}}, {"type": "Feature", "geometry": {"type": "Point", "coordinates": [-122.373352, 47.573616]}, "properties": {"name": "SW Admiral Way & SW City View St"}}, {"type": "Feature", "geometry": {"type": "Point", "coordinates": [-122.334091, 47.5921631]}, "properties": {"name": "1st Ave S & S Royal Brougham Way"}}, {"type": "Feature", "geometry": {"type": "Point", "coordinates": [-122.365234, 47.5714531]}, "properties": {"name": "SW Spokane St & 26th Ave SW"}}, {"type": "Feature", "geometry": {"type": "Point", "coordinates": [-122.362411, 47.5713043]}, "properties": {"name": "SW Spokane St & Chelan Ave SW"}}, {"type": "Feature", "geometry": {"type": "Point", "coordinates": [-122.333992, 47.5723419]}, "properties": {"name": "1st Ave S & S Spokane St"}}, {"type": "Feature", "geometry": {"type": "Point", "coordinates": [-122.334297, 47.589901]}, "properties": {"name": "1st Ave S & S Atlantic St"}}, {"type": "Feature", "geometry": {"type": "Point", "coordinates": [-122.334297, 47.585762]}, "properties": {"name": "1st Ave S & S Holgate St"}}, {"type": "Feature", "geometry": {"type": "Point", "coordinates": [-122.334297, 47.5815544]}, "properties": {"name": "1st Ave S & S Stacy St"}}, {"type": "Feature", "geometry": {"type": "Point", "coordinates": [-122.333473, 47.5901985]}, "properties": {"name": "Edgar Martinez Dr S & Occidental Ave S"}}, {"type": "Feature", "geometry": {"type": "Point", "coordinates": [-122.334106, 47.5759239]}, "properties": {"name": "1st Ave S & S Hanford St"}}, {"type": "Feature", "geometry": {"type": "Point", "coordinates": [-122.334106, 47.5822334]}, "properties": {"name": "1st Ave S & S Stacy St"}}, {"type": "Feature", "geometry": {"type": "Point", "coordinates": [-122.334106, 47.5865173]}, "properties": {"name": "1st Ave S & S Holgate St"}}, {"type": "Feature", "geometry": {"type": "Point", "coordinates": [-122.334297, 47.5836525]}, "properties": {"name": "1st Ave S & S Walker St"}}, {"type": "Feature", "geometry": {"type": "Point", "coordinates": [-122.334106, 47.5842438]}, "properties": {"name": "1st Ave S & S Walker St"}}, {"type": "Feature", "geometry": {"type": "Point", "coordinates": [-122.334106, 47.5796814]}, "properties": {"name": "1st Ave S & S Lander St"}}, {"type": "Feature", "geometry": {"type": "Point", "coordinates": [-122.328384, 47.5992661]}, "properties": {"name": "S Jackson St & 5th Ave S"}}, {"type": "Feature", "geometry": {"type": "Point", "coordinates": [-122.334312, 47.5792503]}, "properties": {"name": "1st Ave S & S Lander St"}}, {"type": "Feature", "geometry": {"type": "Point", "coordinates": [-122.334312, 47.5757523]}, "properties": {"name": "1st Ave S & S Hanford St"}}, {"type": "Feature", "geometry": {"type": "Point", "coordinates": [-122.329094, 47.6038017]}, "properties": {"name": "James St & 5th Ave"}}, {"type": "Feature", "geometry": {"type": "Point", "coordinates": [-122.363365, 47.5717201]}, "properties": {"name": "SW Spokane St & Chelan Ave SW"}}, {"type": "Feature", "geometry": {"type": "Point", "coordinates": [-122.366165, 47.5717125]}, "properties": {"name": "SW Spokane St & 26th Ave SW"}}, {"type": "Feature", "geometry": {"type": "Point", "coordinates": [-122.373474, 47.5740433]}, "properties": {"name": "SW Admiral Way & SW City View St"}}, {"type": "Feature", "geometry": {"type": "Point", "coordinates": [-122.330864, 47.6030807]}, "properties": {"name": "James St & 4th Ave"}}, {"type": "Feature", "geometry": {"type": "Point", "coordinates": [-122.376564, 47.5801315]}, "properties": {"name": "SW Admiral Way & SW Olga St"}}, {"type": "Feature", "geometry": {"type": "Point", "coordinates": [-122.333282, 47.5992737]}, "properties": {"name": "Occidental Mall"}}, {"type": "Feature", "geometry": {"type": "Point", "coordinates": [-122.380676, 47.5812531]}, "properties": {"name": "SW Admiral Way & 38th Ave SW"}}, {"type": "Feature", "geometry": {"type": "Point", "coordinates": [-122.384743, 47.5812454]}, "properties": {"name": "SW Admiral Way & 41st Ave SW"}}, {"type": "Feature", "geometry": {"type": "Point", "coordinates": [-122.386871, 47.5812683]}, "properties": {"name": "SW Admiral Way & California Ave SW"}}, {"type": "Feature", "geometry": {"type": "Point", "coordinates": [-122.392273, 47.5810471]}, "properties": {"name": "SW Admiral Way & SW Waite St"}}, {"type": "Feature", "geometry": {"type": "Point", "coordinates": [-122.336784, 47.6026154]}, "properties": {"name": "Columbia St & Alaskan Way"}}, {"type": "Feature", "geometry": {"type": "Point", "coordinates": [-122.393707, 47.5798187]}, "properties": {"name": "SW Admiral Way & 49th Ave SW"}}, {"type": "Feature", "geometry": {"type": "Point", "coordinates": [-122.397163, 47.5793343]}, "properties": {"name": "SW Admiral Way & 51st Ave SW"}}, {"type": "Feature", "geometry": {"type": "Point", "coordinates": [-122.336685, 47.6024971]}, "properties": {"name": "Alaskan Way & Columbia St"}}, {"type": "Feature", "geometry": {"type": "Point", "coordinates": [-122.330826, 47.602932]}, "properties": {"name": "James St & 3rd Ave"}}, {"type": "Feature", "geometry": {"type": "Point", "coordinates": [-122.335556, 47.5997009]}, "properties": {"name": "Alaskan Way S & S Jackson St"}}, {"type": "Feature", "geometry": {"type": "Point", "coordinates": [-122.400673, 47.5788994]}, "properties": {"name": "SW Admiral Way & SW Lander St"}}, {"type": "Feature", "geometry": {"type": "Point", "coordinates": [-122.33596, 47.5987167]}, "properties": {"name": "Alaskan Way S & S Jackson St"}}, {"type": "Feature", "geometry": {"type": "Point", "coordinates": [-122.405319, 47.5771675]}, "properties": {"name": "SW Admiral Way & 57th Ave SW"}}, {"type": "Feature", "geometry": {"type": "Point", "coordinates": [-122.41066, 47.5759735]}, "properties": {"name": "SW Admiral Way & 61st Ave SW"}}, {"type": "Feature", "geometry": {"type": "Point", "coordinates": [-122.413239, 47.5762405]}, "properties": {"name": "63rd Ave SW & SW Admiral Way"}}, {"type": "Feature", "geometry": {"type": "Point", "coordinates": [-122.413185, 47.5782089]}, "properties": {"name": "63rd Ave SW & Alki Ave SW"}}, {"type": "Feature", "geometry": {"type": "Point", "coordinates": [-122.328773, 47.6037712]}, "properties": {"name": "James St & 5th Ave"}}, {"type": "Feature", "geometry": {"type": "Point", "coordinates": [-122.329941, 47.6016579]}, "properties": {"name": "Prefontaine Pl S & Yesler Way"}}, {"type": "Feature", "geometry": {"type": "Point", "coordinates": [-122.342407, 47.7742424]}, "properties": {"name": "Aurora Village Transit Center - Bay 10"}}, {"type": "Feature", "geometry": {"type": "Point", "coordinates": [-122.341988, 47.7745056]}, "properties": {"name": "Aurora Village Transit Center - Bay 1"}}, {"type": "Feature", "geometry": {"type": "Point", "coordinates": [-122.340881, 47.7745056]}, "properties": {"name": "Aurora Village Transit Center - Bay 3"}}, {"type": "Feature", "geometry": {"type": "Point", "coordinates": [-122.335358, 47.7756462]}, "properties": {"name": "Meridian Ave N & N 203rd St"}}, {"type": "Feature", "geometry": {"type": "Point", "coordinates": [-122.335304, 47.7721138]}, "properties": {"name": "Meridian Ave N & N 198th St"}}, {"type": "Feature", "geometry": {"type": "Point", "coordinates": [-122.335266, 47.7698402]}, "properties": {"name": "Meridian Ave N & N 194th St"}}, {"type": "Feature", "geometry": {"type": "Point", "coordinates": [-122.335197, 47.7666931]}, "properties": {"name": "Meridian Ave N & N 190th St"}}, {"type": "Feature", "geometry": {"type": "Point", "coordinates": [-122.33786, 47.6148643]}, "properties": {"name": "Westlake And 7th"}}, {"type": "Feature", "geometry": {"type": "Point", "coordinates": [-122.335167, 47.7653694]}, "properties": {"name": "Meridian Ave N & N 188th St"}}, {"type": "Feature", "geometry": {"type": "Point", "coordinates": [-122.335114, 47.7629204]}, "properties": {"name": "Meridian Ave N & N 185th St"}}, {"type": "Feature", "geometry": {"type": "Point", "coordinates": [-122.335091, 47.7615395]}, "properties": {"name": "Meridian Ave N & N 183rd St"}}, {"type": "Feature", "geometry": {"type": "Point", "coordinates": [-122.33503, 47.7593842]}, "properties": {"name": "Meridian Ave N & N 180th St"}}, {"type": "Feature", "geometry": {"type": "Point", "coordinates": [-122.334991, 47.7575531]}, "properties": {"name": "Meridian Ave N & N 178th St"}}, {"type": "Feature", "geometry": {"type": "Point", "coordinates": [-122.334938, 47.7555656]}, "properties": {"name": "Meridian Ave N & N 175th St"}}, {"type": "Feature", "geometry": {"type": "Point", "coordinates": [-122.334885, 47.7525482]}, "properties": {"name": "Meridian Ave N & N 170th St"}}, {"type": "Feature", "geometry": {"type": "Point", "coordinates": [-122.334839, 47.750267]}, "properties": {"name": "Meridian Ave N & N 167th St"}}, {"type": "Feature", "geometry": {"type": "Point", "coordinates": [-122.334801, 47.7484436]}, "properties": {"name": "Meridian Ave N & N 165th St"}}, {"type": "Feature", "geometry": {"type": "Point", "coordinates": [-122.334747, 47.7466393]}, "properties": {"name": "Meridian Ave N & N 163rd St"}}, {"type": "Feature", "geometry": {"type": "Point", "coordinates": [-122.334709, 47.7452888]}, "properties": {"name": "Meridian Ave N & N 160th St"}}, {"type": "Feature", "geometry": {"type": "Point", "coordinates": [-122.334648, 47.7434006]}, "properties": {"name": "Meridian Ave N & N 158th St"}}, {"type": "Feature", "geometry": {"type": "Point", "coordinates": [-122.334579, 47.7411003]}, "properties": {"name": "Meridian Ave N & N 155th St"}}, {"type": "Feature", "geometry": {"type": "Point", "coordinates": [-122.334297, 47.7381516]}, "properties": {"name": "Meridian Ave N & N 150th St"}}, {"type": "Feature", "geometry": {"type": "Point", "coordinates": [-122.334473, 47.7375755]}, "properties": {"name": "Meridian Ave N & N 150th St"}}, {"type": "Feature", "geometry": {"type": "Point", "coordinates": [-122.334435, 47.7360954]}, "properties": {"name": "Meridian Ave N & N 148th St"}}, {"type": "Feature", "geometry": {"type": "Point", "coordinates": [-122.32486, 47.6784592]}, "properties": {"name": "NE Ravenna Blvd & Woodlawn Ave NE"}}, {"type": "Feature", "geometry": {"type": "Point", "coordinates": [-122.323807, 47.6773109]}, "properties": {"name": "NE Ravenna Blvd & NE 68th St"}}, {"type": "Feature", "geometry": {"type": "Point", "coordinates": [-122.320129, 47.6757851]}, "properties": {"name": "NE 65th St & 8th Ave NE"}}, {"type": "Feature", "geometry": {"type": "Point", "coordinates": [-122.319954, 47.6753807]}, "properties": {"name": "8th Ave NE & NE 64th St"}}, {"type": "Feature", "geometry": {"type": "Point", "coordinates": [-122.316673, 47.6757507]}, "properties": {"name": "Roosevelt Station - Bay 1"}}, {"type": "Feature", "geometry": {"type": "Point", "coordinates": [-122.317467, 47.675457]}, "properties": {"name": "Roosevelt Station - Bay 5"}}, {"type": "Feature", "geometry": {"type": "Point", "coordinates": [-122.317467, 47.6723557]}, "properties": {"name": "Roosevelt Way NE & NE Ravenna Blvd"}}, {"type": "Feature", "geometry": {"type": "Point", "coordinates": [-122.317467, 47.668396]}, "properties": {"name": "Roosevelt Way NE & NE 55th St"}}, {"type": "Feature", "geometry": {"type": "Point", "coordinates": [-122.327095, 47.5992661]}, "properties": {"name": "5th & Jackson"}}, {"type": "Feature", "geometry": {"type": "Point", "coordinates": [-122.323586, 47.6778717]}, "properties": {"name": "NE Ravenna Blvd & NE 68th St"}}, {"type": "Feature", "geometry": {"type": "Point", "coordinates": [-122.327095, 47.5991249]}, "properties": {"name": "5th & Jackson"}}, {"type": "Feature", "geometry": {"type": "Point", "coordinates": [-122.324486, 47.6788406]}, "properties": {"name": "NE Ravenna Blvd & Woodlawn Ave NE"}}, {"type": "Feature", "geometry": {"type": "Point", "coordinates": [-122.334175, 47.7338905]}, "properties": {"name": "Meridian Ave N & N 145th St"}}, {"type": "Feature", "geometry": {"type": "Point", "coordinates": [-122.323296, 47.5992661]}, "properties": {"name": "7th & Jackson"}}, {"type": "Feature", "geometry": {"type": "Point", "coordinates": [-122.334389, 47.7416382]}, "properties": {"name": "Meridian Ave N & N 155th St"}}, {"type": "Feature", "geometry": {"type": "Point", "coordinates": [-122.323296, 47.5991287]}, "properties": {"name": "7th & Jackson"}}, {"type": "Feature", "geometry": {"type": "Point", "coordinates": [-122.33445, 47.7431755]}, "properties": {"name": "Meridian Ave N & N 156th Pl"}}, {"type": "Feature", "geometry": {"type": "Point", "coordinates": [-122.334488, 47.7447739]}, "properties": {"name": "Meridian Ave N & N 159th St"}}, {"type": "Feature", "geometry": {"type": "Point", "coordinates": [-122.334557, 47.7470551]}, "properties": {"name": "Meridian Ave N & N 163rd St"}}, {"type": "Feature", "geometry": {"type": "Point", "coordinates": [-122.33461, 47.7489624]}, "properties": {"name": "Meridian Ave N & N 165th St"}}, {"type": "Feature", "geometry": {"type": "Point", "coordinates": [-122.334641, 47.7508011]}, "properties": {"name": "Meridian Ave N & N 167th St"}}, {"type": "Feature", "geometry": {"type": "Point", "coordinates": [-122.334663, 47.7522964]}, "properties": {"name": "Meridian Ave N & N 170th St"}}, {"type": "Feature", "geometry": {"type": "Point", "coordinates": [-122.334763, 47.7562981]}, "properties": {"name": "Meridian Ave N & N 175th St"}}, {"type": "Feature", "geometry": {"type": "Point", "coordinates": [-122.334801, 47.7580833]}, "properties": {"name": "Meridian Ave N & N 178th St"}}, {"type": "Feature", "geometry": {"type": "Point", "coordinates": [-122.334839, 47.7599068]}, "properties": {"name": "Meridian Ave N & N 180th St"}}, {"type": "Feature", "geometry": {"type": "Point", "coordinates": [-122.315758, 47.5992737]}, "properties": {"name": "12th & Jackson"}}, {"type": "Feature", "geometry": {"type": "Point", "coordinates": [-122.334885, 47.7616997]}, "properties": {"name": "Meridian Ave N & N 183rd St"}}, {"type": "Feature", "geometry": {"type": "Point", "coordinates": [-122.315758, 47.5991402]}, "properties": {"name": "12th & Jackson"}}, {"type": "Feature", "geometry": {"type": "Point", "coordinates": [-122.334923, 47.7635231]}, "properties": {"name": "Meridian Ave N & N 185th St"}}, {"type": "Feature", "geometry": {"type": "Point", "coordinates": [-122.334969, 47.7650604]}, "properties": {"name": "Meridian Ave N & N 187th St"}}, {"type": "Feature", "geometry": {"type": "Point", "coordinates": [-122.335007, 47.7671661]}, "properties": {"name": "Meridian Ave N & N 190th St"}}, {"type": "Feature", "geometry": {"type": "Point", "coordinates": [-122.33506, 47.7694397]}, "properties": {"name": "Meridian Ave N & N 193rd St"}}, {"type": "Feature", "geometry": {"type": "Point", "coordinates": [-122.335098, 47.7724457]}, "properties": {"name": "Meridian Ave N & N 198th St"}}, {"type": "Feature", "geometry": {"type": "Point", "coordinates": [-122.3367, 47.7742424]}, "properties": {"name": "N 200th St & Burke Ave N"}}, {"type": "Feature", "geometry": {"type": "Point", "coordinates": [-122.334381, 47.7338181]}, "properties": {"name": "Meridian Ave N & N 145th St"}}, {"type": "Feature", "geometry": {"type": "Point", "coordinates": [-122.31424, 47.6005898]}, "properties": {"name": "14th & Washington"}}, {"type": "Feature", "geometry": {"type": "Point", "coordinates": [-122.334366, 47.7321053]}, "properties": {"name": "Meridian Ave N & N 143rd St"}}, {"type": "Feature", "geometry": {"type": "Point", "coordinates": [-122.314041, 47.6005936]}, "properties": {"name": "14th & Washington"}}, {"type": "Feature", "geometry": {"type": "Point", "coordinates": [-122.33432, 47.7288094]}, "properties": {"name": "Meridian Ave N & Roosevelt Way N"}}, {"type": "Feature", "geometry": {"type": "Point", "coordinates": [-122.334297, 47.7265778]}, "properties": {"name": "Meridian Ave N & N 135th St"}}, {"type": "Feature", "geometry": {"type": "Point", "coordinates": [-122.334297, 47.725132]}, "properties": {"name": "Meridian Ave N & N 133rd St"}}, {"type": "Feature", "geometry": {"type": "Point", "coordinates": [-122.334282, 47.72295]}, "properties": {"name": "Meridian Ave N & N 130th St"}}, {"type": "Feature", "geometry": {"type": "Point", "coordinates": [-122.334572, 47.722084]}, "properties": {"name": "N 128th St & Meridian Ave N"}}, {"type": "Feature", "geometry": {"type": "Point", "coordinates": [-122.337708, 47.7215309]}, "properties": {"name": "Densmore Ave N & N 128th St"}}, {"type": "Feature", "geometry": {"type": "Point", "coordinates": [-122.33857, 47.7192917]}, "properties": {"name": "Densmore Ave N & N 125th St"}}, {"type": "Feature", "geometry": {"type": "Point", "coordinates": [-122.34845, 47.6169586]}, "properties": {"name": "3rd Ave & Vine St"}}, {"type": "Feature", "geometry": {"type": "Point", "coordinates": [-122.33741, 47.7171326]}, "properties": {"name": "Densmore Ave N & N 122nd St"}}, {"type": "Feature", "geometry": {"type": "Point", "coordinates": [-122.336479, 47.7137337]}, "properties": {"name": "Northwest Hospital"}}, {"type": "Feature", "geometry": {"type": "Point", "coordinates": [-122.334213, 47.7159996]}, "properties": {"name": "Meridian Ave N & N 120th St"}}, {"type": "Feature", "geometry": {"type": "Point", "coordinates": [-122.33416, 47.7119713]}, "properties": {"name": "Meridian Ave N & N 115th St"}}, {"type": "Feature", "geometry": {"type": "Point", "coordinates": [-122.334091, 47.70821]}, "properties": {"name": "Meridian Ave N & N Northgate Way"}}, {"type": "Feature", "geometry": {"type": "Point", "coordinates": [-122.334038, 47.7051201]}, "properties": {"name": "Meridian Ave N & N 105th St"}}, {"type": "Feature", "geometry": {"type": "Point", "coordinates": [-122.334106, 47.7030525]}, "properties": {"name": "College Way N & N 103rd St"}}, {"type": "Feature", "geometry": {"type": "Point", "coordinates": [-122.335297, 47.6993408]}, "properties": {"name": "College Way N & N 97th St"}}, {"type": "Feature", "geometry": {"type": "Point", "coordinates": [-122.330673, 47.6958542]}, "properties": {"name": "N 92nd St & Corliss Ave N"}}, {"type": "Feature", "geometry": {"type": "Point", "coordinates": [-122.328354, 47.6979218]}, "properties": {"name": "1st Ave NE & NE 95th St"}}, {"type": "Feature", "geometry": {"type": "Point", "coordinates": [-122.336578, 47.6942482]}, "properties": {"name": "Wallingford Ave N & N 90th St"}}, {"type": "Feature", "geometry": {"type": "Point", "coordinates": [-122.33651, 47.68853]}, "properties": {"name": "Wallingford Ave N & N 82nd St"}}, {"type": "Feature", "geometry": {"type": "Point", "coordinates": [-122.336494, 47.6870499]}, "properties": {"name": "Wallingford Ave N & N 80th St"}}, {"type": "Feature", "geometry": {"type": "Point", "coordinates": [-122.336861, 47.6857948]}, "properties": {"name": "Wallingford Ave N & East Green Lake Dr N"}}, {"type": "Feature", "geometry": {"type": "Point", "coordinates": [-122.328255, 47.602047]}, "properties": {"name": "Terrace St & 5th Ave"}}, {"type": "Feature", "geometry": {"type": "Point", "coordinates": [-122.325783, 47.6781807]}, "properties": {"name": "Woodlawn Ave NE & 5th Ave NE"}}, {"type": "Feature", "geometry": {"type": "Point", "coordinates": [-122.328682, 47.6775932]}, "properties": {"name": "Woodlawn Ave NE & 1st Ave NE"}}, {"type": "Feature", "geometry": {"type": "Point", "coordinates": [-122.333145, 47.6745758]}, "properties": {"name": "Woodlawn Ave N & N 63rd St"}}, {"type": "Feature", "geometry": {"type": "Point", "coordinates": [-122.333519, 47.6715622]}, "properties": {"name": "Kirkwood Pl N & N 59th St"}}, {"type": "Feature", "geometry": {"type": "Point", "coordinates": [-122.332848, 47.6687508]}, "properties": {"name": "N 56th St & Keystone Pl N"}}, {"type": "Feature", "geometry": {"type": "Point", "coordinates": [-122.333801, 47.6677094]}, "properties": {"name": "Meridian Ave N & N 54th St"}}, {"type": "Feature", "geometry": {"type": "Point", "coordinates": [-122.333832, 47.6648293]}, "properties": {"name": "Meridian Ave N & N 50th St"}}, {"type": "Feature", "geometry": {"type": "Point", "coordinates": [-122.333847, 47.6619415]}, "properties": {"name": "Meridian Ave N & N 46th St"}}, {"type": "Feature", "geometry": {"type": "Point", "coordinates": [-122.335556, 47.6614609]}, "properties": {"name": "N 45th St & Wallingford Ave N"}}, {"type": "Feature", "geometry": {"type": "Point", "coordinates": [-122.335442, 47.6613159]}, "properties": {"name": "N 45th St & Wallingford Ave N"}}, {"type": "Feature", "geometry": {"type": "Point", "coordinates": [-122.333626, 47.6616631]}, "properties": {"name": "Meridian Ave N & N 45th St"}}, {"type": "Feature", "geometry": {"type": "Point", "coordinates": [-122.333626, 47.6639328]}, "properties": {"name": "Meridian Ave N & N 49th St"}}, {"type": "Feature", "geometry": {"type": "Point", "coordinates": [-122.333595, 47.6673775]}, "properties": {"name": "Meridian Ave N & N 53rd St"}}, {"type": "Feature", "geometry": {"type": "Point", "coordinates": [-122.332603, 47.6686668]}, "properties": {"name": "N 56th St & Keystone Pl N"}}, {"type": "Feature", "geometry": {"type": "Point", "coordinates": [-122.333275, 47.6715355]}, "properties": {"name": "Kirkwood Pl N & N 59th St"}}, {"type": "Feature", "geometry": {"type": "Point", "coordinates": [-122.33316, 47.6743546]}, "properties": {"name": "Woodlawn Ave N & N 63rd St"}}, {"type": "Feature", "geometry": {"type": "Point", "coordinates": [-122.329132, 47.677475]}, "properties": {"name": "Woodlawn Ave NE & Sunnyside Ave N"}}, {"type": "Feature", "geometry": {"type": "Point", "coordinates": [-122.336304, 47.6873512]}, "properties": {"name": "Wallingford Ave N & N 80th St"}}, {"type": "Feature", "geometry": {"type": "Point", "coordinates": [-122.336319, 47.6889038]}, "properties": {"name": "Wallingford Ave N & N 82nd St"}}, {"type": "Feature", "geometry": {"type": "Point", "coordinates": [-122.336342, 47.6909218]}, "properties": {"name": "Wallingford Ave N & N 85th St"}}, {"type": "Feature", "geometry": {"type": "Point", "coordinates": [-122.336388, 47.6943626]}, "properties": {"name": "Wallingford Ave N & N 90th St"}}, {"type": "Feature", "geometry": {"type": "Point", "coordinates": [-122.332741, 47.6978226]}, "properties": {"name": "North Seattle College"}}, {"type": "Feature", "geometry": {"type": "Point", "coordinates": [-122.332558, 47.6976929]}, "properties": {"name": "North Seattle College"}}, {"type": "Feature", "geometry": {"type": "Point", "coordinates": [-122.32856, 47.6977348]}, "properties": {"name": "1st Ave NE & NE 95th St"}}, {"type": "Feature", "geometry": {"type": "Point", "coordinates": [-122.330513, 47.6959953]}, "properties": {"name": "N 92nd St & Corliss Ave N"}}, {"type": "Feature", "geometry": {"type": "Point", "coordinates": [-122.334908, 47.6992683]}, "properties": {"name": "College Way N & N 97th St"}}, {"type": "Feature", "geometry": {"type": "Point", "coordinates": [-122.333794, 47.7032013]}, "properties": {"name": "College Way N & N 103rd St"}}, {"type": "Feature", "geometry": {"type": "Point", "coordinates": [-122.333832, 47.7047577]}, "properties": {"name": "Meridian Ave N & N 105th St"}}, {"type": "Feature", "geometry": {"type": "Point", "coordinates": [-122.33461, 47.7085342]}, "properties": {"name": "N Northgate Way & Meridian Ave N"}}, {"type": "Feature", "geometry": {"type": "Point", "coordinates": [-122.3339, 47.7090034]}, "properties": {"name": "Meridian Ave N & N Northgate Way"}}, {"type": "Feature", "geometry": {"type": "Point", "coordinates": [-122.333969, 47.7124557]}, "properties": {"name": "Meridian Ave N & N 115th St"}}, {"type": "Feature", "geometry": {"type": "Point", "coordinates": [-122.334023, 47.7161446]}, "properties": {"name": "Meridian Ave N & N 120th St"}}, {"type": "Feature", "geometry": {"type": "Point", "coordinates": [-122.336456, 47.7171898]}, "properties": {"name": "N 122nd St & Burke Ave N"}}, {"type": "Feature", "geometry": {"type": "Point", "coordinates": [-122.338463, 47.7194939]}, "properties": {"name": "Densmore Ave N & N 125th St"}}, {"type": "Feature", "geometry": {"type": "Point", "coordinates": [-122.337318, 47.7218781]}, "properties": {"name": "Densmore Ave N & N 128th St"}}, {"type": "Feature", "geometry": {"type": "Point", "coordinates": [-122.334526, 47.7219467]}, "properties": {"name": "N 128th St & Meridian Ave N"}}, {"type": "Feature", "geometry": {"type": "Point", "coordinates": [-122.334091, 47.723156]}, "properties": {"name": "Meridian Ave N & N 130th St"}}, {"type": "Feature", "geometry": {"type": "Point", "coordinates": [-122.334091, 47.7252731]}, "properties": {"name": "Meridian Ave N & N 133rd St"}}, {"type": "Feature", "geometry": {"type": "Point", "coordinates": [-122.334106, 47.727169]}, "properties": {"name": "Meridian Ave N & N 135th St"}}, {"type": "Feature", "geometry": {"type": "Point", "coordinates": [-122.334122, 47.72892]}, "properties": {"name": "Meridian Ave N & Roosevelt Way N"}}, {"type": "Feature", "geometry": {"type": "Point", "coordinates": [-122.334129, 47.730442]}, "properties": {"name": "Meridian Ave N & N 140th St"}}, {"type": "Feature", "geometry": {"type": "Point", "coordinates": [-122.401215, 47.6953125]}, "properties": {"name": "View Ave NW & Loyal Ave NW"}}, {"type": "Feature", "geometry": {"type": "Point", "coordinates": [-122.399498, 47.6938477]}, "properties": {"name": "Loyal Ave NW & Golden Gardens Dr NW"}}, {"type": "Feature", "geometry": {"type": "Point", "coordinates": [-122.398811, 47.6923676]}, "properties": {"name": "Golden Gardens Dr NW & NW 87th St"}}, {"type": "Feature", "geometry": {"type": "Point", "coordinates": [-122.398415, 47.6901321]}, "properties": {"name": "32nd Ave NW & NW 85th St"}}, {"type": "Feature", "geometry": {"type": "Point", "coordinates": [-122.398407, 47.6880112]}, "properties": {"name": "32nd Ave NW & NW 80th St"}}, {"type": "Feature", "geometry": {"type": "Point", "coordinates": [-122.398392, 47.6863518]}, "properties": {"name": "32nd Ave NW & NW 80th St"}}, {"type": "Feature", "geometry": {"type": "Point", "coordinates": [-122.398415, 47.6849747]}, "properties": {"name": "32nd Ave NW & NW 77th St"}}, {"type": "Feature", "geometry": {"type": "Point", "coordinates": [-122.398514, 47.6828804]}, "properties": {"name": "32nd Ave NW & NW 75th St"}}, {"type": "Feature", "geometry": {"type": "Point", "coordinates": [-122.398499, 47.6816788]}, "properties": {"name": "32nd Ave NW & NW 73rd St"}}, {"type": "Feature", "geometry": {"type": "Point", "coordinates": [-122.398499, 47.6807098]}, "properties": {"name": "32nd Ave NW & NW 72nd St"}}, {"type": "Feature", "geometry": {"type": "Point", "coordinates": [-122.398483, 47.679245]}, "properties": {"name": "32nd Ave NW & NW 70th St"}}, {"type": "Feature", "geometry": {"type": "Point", "coordinates": [-122.398476, 47.6770477]}, "properties": {"name": "32nd Ave NW & NW 67th St"}}, {"type": "Feature", "geometry": {"type": "Point", "coordinates": [-122.398483, 47.6744804]}, "properties": {"name": "32nd Ave NW & NW 64th St"}}, {"type": "Feature", "geometry": {"type": "Point", "coordinates": [-122.398476, 47.6727791]}, "properties": {"name": "32nd Ave NW & NW 61st St"}}, {"type": "Feature", "geometry": {"type": "Point", "coordinates": [-122.39843, 47.67136]}, "properties": {"name": "32nd Ave NW & NW 59th St"}}, {"type": "Feature", "geometry": {"type": "Point", "coordinates": [-122.397911, 47.6685524]}, "properties": {"name": "NW Market St & 32nd Ave NW"}}, {"type": "Feature", "geometry": {"type": "Point", "coordinates": [-122.39843, 47.6696053]}, "properties": {"name": "32nd Ave NW & NW 56th St"}}, {"type": "Feature", "geometry": {"type": "Point", "coordinates": [-122.398415, 47.6679344]}, "properties": {"name": "32nd Ave NW & NW Market St"}}, {"type": "Feature", "geometry": {"type": "Point", "coordinates": [-122.39653, 47.6676369]}, "properties": {"name": "NW 54th St & 30th Ave NW"}}, {"type": "Feature", "geometry": {"type": "Point", "coordinates": [-122.393089, 47.6685905]}, "properties": {"name": "NW Market St & 28th Ave NW"}}, {"type": "Feature", "geometry": {"type": "Point", "coordinates": [-122.385345, 47.6686058]}, "properties": {"name": "NW Market St & Ballard Ave NW"}}, {"type": "Feature", "geometry": {"type": "Point", "coordinates": [-122.383018, 47.6673164]}, "properties": {"name": "Leary Ave NW & NW Vernon Pl"}}, {"type": "Feature", "geometry": {"type": "Point", "coordinates": [-122.379784, 47.664566]}, "properties": {"name": "Leary Ave NW & NW Dock Pl"}}, {"type": "Feature", "geometry": {"type": "Point", "coordinates": [-122.380417, 47.6653214]}, "properties": {"name": "Leary Ave NW & NW Dock Pl"}}, {"type": "Feature", "geometry": {"type": "Point", "coordinates": [-122.375587, 47.6635933]}, "properties": {"name": "NW Leary Way & 15th Ave NW"}}, {"type": "Feature", "geometry": {"type": "Point", "coordinates": [-122.375465, 47.6541901]}, "properties": {"name": "W Nickerson St & W Emerson St"}}, {"type": "Feature", "geometry": {"type": "Point", "coordinates": [-122.371971, 47.6548843]}, "properties": {"name": "W Nickerson St & 12th Ave W"}}, {"type": "Feature", "geometry": {"type": "Point", "coordinates": [-122.36985, 47.6536293]}, "properties": {"name": "W Nickerson St & Jesse Ave W"}}, {"type": "Feature", "geometry": {"type": "Point", "coordinates": [-122.36689, 47.6521187]}, "properties": {"name": "W Nickerson St & 8th Ave W"}}, {"type": "Feature", "geometry": {"type": "Point", "coordinates": [-122.364243, 47.6515121]}, "properties": {"name": "W Nickerson St & 6th Ave W"}}, {"type": "Feature", "geometry": {"type": "Point", "coordinates": [-122.36055, 47.6506805]}, "properties": {"name": "W Nickerson St & 3rd Ave W"}}, {"type": "Feature", "geometry": {"type": "Point", "coordinates": [-122.357918, 47.6497917]}, "properties": {"name": "W Nickerson St & Queen Anne Ave N"}}, {"type": "Feature", "geometry": {"type": "Point", "coordinates": [-122.354568, 47.6482658]}, "properties": {"name": "Nickerson St & Warren Ave N"}}, {"type": "Feature", "geometry": {"type": "Point", "coordinates": [-122.352066, 47.6471024]}, "properties": {"name": "Nickerson St & Florentia St"}}, {"type": "Feature", "geometry": {"type": "Point", "coordinates": [-122.349243, 47.6454163]}, "properties": {"name": "Dexter Ave N & 4th Ave N"}}, {"type": "Feature", "geometry": {"type": "Point", "coordinates": [-122.346031, 47.6437111]}, "properties": {"name": "Dexter Ave N & Wheeler St"}}, {"type": "Feature", "geometry": {"type": "Point", "coordinates": [-122.344444, 47.640152]}, "properties": {"name": "Dexter Ave N & 6th Ave N"}}, {"type": "Feature", "geometry": {"type": "Point", "coordinates": [-122.343315, 47.6373711]}, "properties": {"name": "Dexter Ave N & Crockett St"}}, {"type": "Feature", "geometry": {"type": "Point", "coordinates": [-122.3424, 47.6357193]}, "properties": {"name": "Dexter Ave N & Howe St"}}, {"type": "Feature", "geometry": {"type": "Point", "coordinates": [-122.342384, 47.631958]}, "properties": {"name": "Dexter Ave N & Galer St"}}, {"type": "Feature", "geometry": {"type": "Point", "coordinates": [-122.342438, 47.6272392]}, "properties": {"name": "Dexter Ave N & Aloha St"}}, {"type": "Feature", "geometry": {"type": "Point", "coordinates": [-122.342453, 47.6251564]}, "properties": {"name": "Dexter Ave N & Roy St"}}, {"type": "Feature", "geometry": {"type": "Point", "coordinates": [-122.342468, 47.6229095]}, "properties": {"name": "Dexter Ave N & Republican St"}}, {"type": "Feature", "geometry": {"type": "Point", "coordinates": [-122.342506, 47.6183014]}, "properties": {"name": "Dexter Ave & Denny Way"}}, {"type": "Feature", "geometry": {"type": "Point", "coordinates": [-122.340881, 47.6158562]}, "properties": {"name": "Blanchard St & 6th Ave"}}, {"type": "Feature", "geometry": {"type": "Point", "coordinates": [-122.34227, 47.6224022]}, "properties": {"name": "Dexter Ave N & Harrison St"}}, {"type": "Feature", "geometry": {"type": "Point", "coordinates": [-122.342247, 47.6253242]}, "properties": {"name": "Dexter Ave N & Roy St"}}, {"type": "Feature", "geometry": {"type": "Point", "coordinates": [-122.342216, 47.6274071]}, "properties": {"name": "Dexter Ave N & Aloha St"}}, {"type": "Feature", "geometry": {"type": "Point", "coordinates": [-122.342178, 47.6325722]}, "properties": {"name": "Dexter Ave N & Galer St"}}, {"type": "Feature", "geometry": {"type": "Point", "coordinates": [-122.342369, 47.6361084]}, "properties": {"name": "Dexter Ave N & Newton St"}}, {"type": "Feature", "geometry": {"type": "Point", "coordinates": [-122.343513, 47.6380997]}, "properties": {"name": "Dexter Ave N & Crockett St"}}, {"type": "Feature", "geometry": {"type": "Point", "coordinates": [-122.344543, 47.6412125]}, "properties": {"name": "Dexter Ave N & Wheeler St"}}, {"type": "Feature", "geometry": {"type": "Point", "coordinates": [-122.345978, 47.643898]}, "properties": {"name": "Dexter Ave N & 4th Ave N"}}, {"type": "Feature", "geometry": {"type": "Point", "coordinates": [-122.349037, 47.645462]}, "properties": {"name": "Dexter Ave N & 4th Ave N"}}, {"type": "Feature", "geometry": {"type": "Point", "coordinates": [-122.351685, 47.6471024]}, "properties": {"name": "Nickerson St & 3rd Ave N"}}, {"type": "Feature", "geometry": {"type": "Point", "coordinates": [-122.355431, 47.6488113]}, "properties": {"name": "Nickerson St & Warren Ave N"}}, {"type": "Feature", "geometry": {"type": "Point", "coordinates": [-122.3573, 47.6496811]}, "properties": {"name": "Nickerson St & Cremona St"}}, {"type": "Feature", "geometry": {"type": "Point", "coordinates": [-122.361244, 47.6509857]}, "properties": {"name": "W Nickerson St & 3rd Ave W"}}, {"type": "Feature", "geometry": {"type": "Point", "coordinates": [-122.364815, 47.6517906]}, "properties": {"name": "W Nickerson St & 6th Ave W"}}, {"type": "Feature", "geometry": {"type": "Point", "coordinates": [-122.367241, 47.6523476]}, "properties": {"name": "W Nickerson St & 8th Ave W"}}, {"type": "Feature", "geometry": {"type": "Point", "coordinates": [-122.370102, 47.6539688]}, "properties": {"name": "W Nickerson St & Jesse Ave W"}}, {"type": "Feature", "geometry": {"type": "Point", "coordinates": [-122.371696, 47.6549034]}, "properties": {"name": "W Nickerson St & 11th Ave W"}}, {"type": "Feature", "geometry": {"type": "Point", "coordinates": [-122.37574, 47.6544151]}, "properties": {"name": "W Nickerson St & W Emerson St"}}, {"type": "Feature", "geometry": {"type": "Point", "coordinates": [-122.37709, 47.6637306]}, "properties": {"name": "NW Leary Way & 15th Ave NW"}}, {"type": "Feature", "geometry": {"type": "Point", "coordinates": [-122.382584, 47.6671638]}, "properties": {"name": "Leary Ave NW & NW Vernon Pl"}}, {"type": "Feature", "geometry": {"type": "Point", "coordinates": [-122.386124, 47.6687469]}, "properties": {"name": "NW Market St & Ballard Ave NW"}}, {"type": "Feature", "geometry": {"type": "Point", "coordinates": [-122.392639, 47.6687241]}, "properties": {"name": "NW Market St & 28th Ave NW"}}, {"type": "Feature", "geometry": {"type": "Point", "coordinates": [-122.395302, 47.6683807]}, "properties": {"name": "NW 54th St & NW Market St"}}, {"type": "Feature", "geometry": {"type": "Point", "coordinates": [-122.396057, 47.6687088]}, "properties": {"name": "NW Market St & 30th Ave NW"}}, {"type": "Feature", "geometry": {"type": "Point", "coordinates": [-122.398216, 47.6685524]}, "properties": {"name": "32nd Ave NW & NW Market St"}}, {"type": "Feature", "geometry": {"type": "Point", "coordinates": [-122.398224, 47.6697845]}, "properties": {"name": "32nd Ave NW & NW 56th St"}}, {"type": "Feature", "geometry": {"type": "Point", "coordinates": [-122.398224, 47.6711693]}, "properties": {"name": "32nd Ave NW & NW 58th St"}}, {"type": "Feature", "geometry": {"type": "Point", "coordinates": [-122.398254, 47.6724052]}, "properties": {"name": "32nd Ave NW & NW 60th St"}}, {"type": "Feature", "geometry": {"type": "Point", "coordinates": [-122.398277, 47.6738815]}, "properties": {"name": "32nd Ave NW & NW 62nd St"}}, {"type": "Feature", "geometry": {"type": "Point", "coordinates": [-122.398277, 47.6753845]}, "properties": {"name": "32nd Ave NW & NW 64th St"}}, {"type": "Feature", "geometry": {"type": "Point", "coordinates": [-122.39827, 47.6767731]}, "properties": {"name": "32nd Ave NW & NW 66th St"}}, {"type": "Feature", "geometry": {"type": "Point", "coordinates": [-122.398277, 47.6786613]}, "properties": {"name": "32nd Ave NW & NW 69th St"}}, {"type": "Feature", "geometry": {"type": "Point", "coordinates": [-122.398293, 47.680439]}, "properties": {"name": "32nd Ave NW & NW 71st St"}}, {"type": "Feature", "geometry": {"type": "Point", "coordinates": [-122.398293, 47.6818581]}, "properties": {"name": "32nd Ave NW & NW 73rd St"}}, {"type": "Feature", "geometry": {"type": "Point", "coordinates": [-122.338928, 47.601223]}, "properties": {"name": "Vashon Island Water Taxi & Colman Dock"}}, {"type": "Feature", "geometry": {"type": "Point", "coordinates": [-122.398201, 47.6835175]}, "properties": {"name": "32nd Ave NW & NW 75th St"}}, {"type": "Feature", "geometry": {"type": "Point", "coordinates": [-122.398216, 47.6850853]}, "properties": {"name": "32nd Ave NW & NW 77th St"}}, {"type": "Feature", "geometry": {"type": "Point", "coordinates": [-122.398201, 47.6869888]}, "properties": {"name": "32nd Ave NW & NW 80th St"}}, {"type": "Feature", "geometry": {"type": "Point", "coordinates": [-122.398216, 47.6883469]}, "properties": {"name": "32nd Ave NW & Loyal Way NW"}}, {"type": "Feature", "geometry": {"type": "Point", "coordinates": [-122.398216, 47.6900215]}, "properties": {"name": "32nd Ave NW & NW 85th St"}}, {"type": "Feature", "geometry": {"type": "Point", "coordinates": [-122.39872, 47.6925926]}, "properties": {"name": "Golden Gardens Dr NW & NW 87th St"}}, {"type": "Feature", "geometry": {"type": "Point", "coordinates": [-122.399452, 47.6938362]}, "properties": {"name": "Golden Gardens Dr NW & Loyal Ave NW"}}, {"type": "Feature", "geometry": {"type": "Point", "coordinates": [-122.400757, 47.6942749]}, "properties": {"name": "View Ave NW & Golden Gardens Dr NW"}}, {"type": "Feature", "geometry": {"type": "Point", "coordinates": [-122.386086, 47.5449982]}, "properties": {"name": "Fauntleroy Way SW & SW Morgan St"}}, {"type": "Feature", "geometry": {"type": "Point", "coordinates": [-122.381996, 47.5504341]}, "properties": {"name": "Fauntleroy Way SW & SW Juneau St"}}, {"type": "Feature", "geometry": {"type": "Point", "coordinates": [-122.381424, 47.5559349]}, "properties": {"name": "Fauntleroy Way SW & SW Dawson St"}}, {"type": "Feature", "geometry": {"type": "Point", "coordinates": [-122.381371, 47.5604973]}, "properties": {"name": "Fauntleroy Way SW & SW Alaska St"}}, {"type": "Feature", "geometry": {"type": "Point", "coordinates": [-122.381645, 47.5554428]}, "properties": {"name": "Fauntleroy Way SW & SW Dawson St"}}, {"type": "Feature", "geometry": {"type": "Point", "coordinates": [-122.33886, 47.6012535]}, "properties": {"name": "West Seattle Water Taxi & Colman Dock"}}, {"type": "Feature", "geometry": {"type": "Point", "coordinates": [-122.382751, 47.550106]}, "properties": {"name": "Fauntleroy Way SW & SW Juneau St"}}, {"type": "Feature", "geometry": {"type": "Point", "coordinates": [-122.341293, 47.6139717]}, "properties": {"name": "Lenora St & 4th Ave"}}, {"type": "Feature", "geometry": {"type": "Point", "coordinates": [-122.391617, 47.6905022]}, "properties": {"name": "NW 85th St & Earl Ave NW"}}, {"type": "Feature", "geometry": {"type": "Point", "coordinates": [-122.387695, 47.6903267]}, "properties": {"name": "24th Ave NW & NW 85th St"}}, {"type": "Feature", "geometry": {"type": "Point", "coordinates": [-122.387711, 47.6884346]}, "properties": {"name": "24th Ave NW & NW 83rd St"}}, {"type": "Feature", "geometry": {"type": "Point", "coordinates": [-122.387695, 47.6865692]}, "properties": {"name": "24th Ave NW & NW 80th St"}}, {"type": "Feature", "geometry": {"type": "Point", "coordinates": [-122.38768, 47.6847267]}, "properties": {"name": "24th Ave NW & NW 77th St"}}, {"type": "Feature", "geometry": {"type": "Point", "coordinates": [-122.387665, 47.682991]}, "properties": {"name": "24th Ave NW & NW 75th St"}}, {"type": "Feature", "geometry": {"type": "Point", "coordinates": [-122.387642, 47.679203]}, "properties": {"name": "24th Ave NW & NW 70th St"}}, {"type": "Feature", "geometry": {"type": "Point", "coordinates": [-122.387695, 47.6755562]}, "properties": {"name": "24th Ave NW & NW 65th St"}}, {"type": "Feature", "geometry": {"type": "Point", "coordinates": [-122.387695, 47.6729012]}, "properties": {"name": "24th Ave NW & NW 61st St"}}, {"type": "Feature", "geometry": {"type": "Point", "coordinates": [-122.387695, 47.6699638]}, "properties": {"name": "24th Ave NW & NW 57th St"}}, {"type": "Feature", "geometry": {"type": "Point", "coordinates": [-122.368088, 47.6263123]}, "properties": {"name": "Elliott Ave W & W Roy St"}}, {"type": "Feature", "geometry": {"type": "Point", "coordinates": [-122.365891, 47.6247063]}, "properties": {"name": "Elliott Ave W & W Mercer St"}}, {"type": "Feature", "geometry": {"type": "Point", "coordinates": [-122.363022, 47.6223145]}, "properties": {"name": "Elliott Ave W & W Harrison St"}}, {"type": "Feature", "geometry": {"type": "Point", "coordinates": [-122.359802, 47.619957]}, "properties": {"name": "Western Ave W & Elliott Ave W"}}, {"type": "Feature", "geometry": {"type": "Point", "coordinates": [-122.356606, 47.6186562]}, "properties": {"name": "Denny Way & Queen Anne Ave N"}}, {"type": "Feature", "geometry": {"type": "Point", "coordinates": [-122.359512, 47.6199646]}, "properties": {"name": "Western Ave W & Elliott Ave W"}}, {"type": "Feature", "geometry": {"type": "Point", "coordinates": [-122.36174, 47.6214409]}, "properties": {"name": "Elliott Ave W & 4th Ave W"}}, {"type": "Feature", "geometry": {"type": "Point", "coordinates": [-122.364059, 47.623394]}, "properties": {"name": "Elliott Ave W & 6th Ave W"}}, {"type": "Feature", "geometry": {"type": "Point", "coordinates": [-122.366394, 47.6252823]}, "properties": {"name": "Elliott Ave W & W Mercer St"}}, {"type": "Feature", "geometry": {"type": "Point", "coordinates": [-122.367958, 47.6264153]}, "properties": {"name": "Elliott Ave W & W Mercer Pl"}}, {"type": "Feature", "geometry": {"type": "Point", "coordinates": [-122.387489, 47.6702995]}, "properties": {"name": "24th Ave NW & NW 57th St"}}, {"type": "Feature", "geometry": {"type": "Point", "coordinates": [-122.387489, 47.6733627]}, "properties": {"name": "24th Ave NW & NW 61st St"}}, {"type": "Feature", "geometry": {"type": "Point", "coordinates": [-122.387436, 47.6761398]}, "properties": {"name": "24th Ave NW & NW 65th St"}}, {"type": "Feature", "geometry": {"type": "Point", "coordinates": [-122.387451, 47.6797333]}, "properties": {"name": "24th Ave NW & NW 70th St"}}, {"type": "Feature", "geometry": {"type": "Point", "coordinates": [-122.387459, 47.6833725]}, "properties": {"name": "24th Ave NW & NW 75th St"}}, {"type": "Feature", "geometry": {"type": "Point", "coordinates": [-122.387489, 47.6851501]}, "properties": {"name": "24th Ave NW & NW 77th St"}}, {"type": "Feature", "geometry": {"type": "Point", "coordinates": [-122.387505, 47.6870003]}, "properties": {"name": "24th Ave NW & NW 80th St"}}, {"type": "Feature", "geometry": {"type": "Point", "coordinates": [-122.387505, 47.6886024]}, "properties": {"name": "24th Ave NW & NW 83rd St"}}, {"type": "Feature", "geometry": {"type": "Point", "coordinates": [-122.390617, 47.5209999]}, "properties": {"name": "SW Wildwood Pl & 45th Ave SW"}}, {"type": "Feature", "geometry": {"type": "Point", "coordinates": [-122.392899, 47.5231781]}, "properties": {"name": "Fauntleroy Way SW & SW Barton St"}}, {"type": "Feature", "geometry": {"type": "Point", "coordinates": [-122.392609, 47.529995]}, "properties": {"name": "Fauntleroy Way SW & SW Rose St"}}, {"type": "Feature", "geometry": {"type": "Point", "coordinates": [-122.392342, 47.5360489]}, "properties": {"name": "Fauntleroy Way SW & SW Webster St"}}, {"type": "Feature", "geometry": {"type": "Point", "coordinates": [-122.390511, 47.5398674]}, "properties": {"name": "Fauntleroy Way SW & SW Myrtle St"}}, {"type": "Feature", "geometry": {"type": "Point", "coordinates": [-122.387108, 47.545311]}, "properties": {"name": "California Ave SW & Fauntleroy Way SW"}}, {"type": "Feature", "geometry": {"type": "Point", "coordinates": [-122.387039, 47.5487518]},